"stop_id","stop_code","stop_name","stop_desc","stop_lat","stop_lon","zone_id","stop_url","location_type","parent_station","stop_timezone","wheelchair_boarding"
"1001002-03","","佐賀駅バスセンター(3)","","33.26443","130.29936","1001002-03","","0","1001002","",""
"1002003-10","","市役所前(1)","","33.263755","130.300205","1002003-10","","0","1002003","",""
"1002004-20","","駅南本町(2)","","33.261857","130.298712","1002004-20","","0","1002004","",""
"1002005-20","","唐人町(2)","","33.258145","130.299266","1002005-20","","0","1002005","",""
"1002006-20","","白山(2)","","33.255358","130.299751","1002006-20","","0","1002006","",""
"1002007-20","","中の小路(2)","","33.254056","130.299978","1002007-20","","0","1002007","",""
"1002008-20","","県庁前(2)","","33.251526","130.30029","1002008-20","","0","1002008","",""
"1002009-20","","佐嘉神社前(2)","","33.251064","130.30207","1002009-20","","0","1002009","",""
"1011039-06","","片田江(6)[片田江西]","","33.251407","130.305366","1011039-06","","0","1011039","",""
"1020092-00","","水ヶ江大通り","","33.24954","130.30637","1020092-00","","0","1020092","",""
"1020093-10","","大隈重信記念館入口(1)","","33.24824","130.306808","1020093-10","","0","1020093","",""
"1020094-20","","竜校前(2)","","33.24588","130.30806","1020094-20","","0","1020094","",""
"1020095-10","","横小路(1)","","33.244397","130.308375","1020095-10","","0","1020095","",""
"1020096-03","","大崎(3)","","33.24135","130.30984","1020096-03","","0","1020096","",""
"1023135-20","","袋住宅前(2)","","33.23883","130.31024","1023135-20","","0","1023135","",""
"1023136-20","","八田橋(2)","","33.23708","130.31035","1023136-20","","0","1023136","",""
"1023137-20","","八田宮前(2)","","33.23366","130.31172","1023137-20","","0","1023137","",""
"1023138-20","","三角茶屋(2)","","33.2305","130.31232","1023138-20","","0","1023138","",""
"1023139-20","","南里(2)","","33.22661","130.31334","1023139-20","","0","1023139","",""
"1023140-20","","農業大学校前(2)","","33.22302","130.31348","1023140-20","","0","1023140","",""
"1023141-20","","南里南(2)","","33.22025","130.31345","1023141-20","","0","1023141","",""
"1023142-20","","坂井(2)","","33.21429","130.31332","1023142-20","","0","1023142","",""
"1023143-20","","西古賀(2)","","33.21078","130.31332","1023143-20","","0","1023143","",""
"1023144-20","","西川副小学校前(2)","","33.2074","130.31363","1023144-20","","0","1023144","",""
"1023145-20","","鋤崎(2)","","33.2024","130.31416","1023145-20","","0","1023145","",""
"1023146-20","","小々森入口(2)","","33.19677","130.31479","1023146-20","","0","1023146","",""
"1023147-20","","鹿江団地東(2)","","33.19364","130.31528","1023147-20","","0","1023147","",""
"1023148-20","","咾分(2)","","33.19181","130.31648","1023148-20","","0","1023148","",""
"1023149-20","","川副支所前(2)","","33.19159","130.31924","1023149-20","","0","1023149","",""
"1023150-20","","犬井道(2)","","33.18955","130.32022","1023150-20","","0","1023150","",""
"1023151-20","","平田分(2)","","33.18934","130.32281","1023151-20","","0","1023151","",""
"1023152-10","","和崎(1)","","33.19007","130.32912","1023152-10","","0","1023152","",""
"1023153-20","","中津(2)","","33.1898","130.33124","1023153-20","","0","1023153","",""
"1023154-20","","上の小路(2)","","33.18279","130.34258","1023154-20","","0","1023154","",""
"1023155-00","","大詫間","","33.17902","130.34241","1023155-00","","0","1023155","",""
"1023154-10","","上の小路(1)","","33.18272","130.34238","1023154-10","","0","1023154","",""
"1023153-10","","中津(1)","","33.18962","130.33096","1023153-10","","0","1023153","",""
"1023151-10","","平田分(1)","","33.18931","130.32361","1023151-10","","0","1023151","",""
"1023150-10","","犬井道(1)","","33.19018","130.31938","1023150-10","","0","1023150","",""
"1023149-10","","川副支所前(1)","","33.19149","130.31918","1023149-10","","0","1023149","",""
"1023148-10","","咾分(1)","","33.19175","130.31609","1023148-10","","0","1023148","",""
"1023147-10","","鹿江団地東(1)","","33.19365","130.31517","1023147-10","","0","1023147","",""
"1023146-10","","小々森入口(1)","","33.19642","130.31476","1023146-10","","0","1023146","",""
"1023145-10","","鋤崎(1)","","33.20293","130.31403","1023145-10","","0","1023145","",""
"1023144-10","","西川副小学校前(1)","","33.20747","130.31349","1023144-10","","0","1023144","",""
"1023143-10","","西古賀(1)","","33.2109","130.31322","1023143-10","","0","1023143","",""
"1023142-10","","坂井(1)","","33.21497","130.31325","1023142-10","","0","1023142","",""
"1023141-10","","南里南(1)","","33.22022","130.31332","1023141-10","","0","1023141","",""
"1023140-10","","農業大学校前(1)","","33.22356","130.31334","1023140-10","","0","1023140","",""
"1023139-10","","南里(1)","","33.22548","130.31334","1023139-10","","0","1023139","",""
"1023138-10","","三角茶屋(1)","","33.23002","130.31219","1023138-10","","0","1023138","",""
"1023137-10","","八田宮前(1)","","33.23359","130.31168","1023137-10","","0","1023137","",""
"1023136-10","","八田橋(1)","","33.23717","130.31021","1023136-10","","0","1023136","",""
"1023135-10","","袋住宅前(1)","","33.23871","130.3101","1023135-10","","0","1023135","",""
"1020096-04","","大崎(4)","","33.24031","130.3098","1020096-04","","0","1020096","",""
"1020095-20","","横小路(2)","","33.24328","130.308509","1020095-20","","0","1020095","",""
"1020094-10","","竜校前(1)","","33.24611","130.30795","1020094-10","","0","1020094","",""
"1020093-20","","大隈重信記念館入口(2)","","33.248487","130.306658","1020093-20","","0","1020093","",""
"1011039-05","","片田江(5)[片田江西]","","33.251284","130.305234","1011039-05","","0","1011039","",""
"1002009-10","","佐嘉神社前(1)","","33.251077","130.303443","1002009-10","","0","1002009","",""
"1002008-10","","県庁前(1)","","33.251331","130.300168","1002008-10","","0","1002008","",""
"1002007-10","","中の小路(1)","","33.253821","130.299857","1002007-10","","0","1002007","",""
"1002006-10","","白山(1)","","33.254817","130.299688","1002006-10","","0","1002006","",""
"1002005-10","","唐人町(1)","","33.258746","130.298995","1002005-10","","0","1002005","",""
"1002004-10","","駅南本町(1)","","33.260865","130.298501","1002004-10","","0","1002004","",""
"1002003-20","","市役所前(2)","","33.263645","130.300045","1002003-20","","0","1002003","",""
"1020096-01","","大崎(1)","","33.24174","130.31029","1020096-01","","0","1020096","",""
"1020097-20","","自動車学校前(2)","","33.23967","130.31569","1020097-20","","0","1020097","",""
"1020098-20","","南佐賀(2)","","33.23875","130.31766","1020098-20","","0","1020098","",""
"1020099-20","","東高校前(2)","","33.23731","130.32088","1020099-20","","0","1020099","",""
"1020100-20","","千々岩(2)","","33.23599","130.32393","1020100-20","","0","1020100","",""
"1020101-20","","光法西(2)","","33.23381","130.32872","1020101-20","","0","1020101","",""
"1020102-20","","光法(2)","","33.23177","130.33336","1020102-20","","0","1020102","",""
"1020103-20","","山領北(2)","","33.23066","130.33591","1020103-20","","0","1020103","",""
"1020104-20","","山領(2)","","33.22819","130.34134","1020104-20","","0","1020104","",""
"1020105-20","","野町(2)","","33.22703","130.34399","1020105-20","","0","1020105","",""
"1020106-20","","小杭(2)","","33.22479","130.34917","1020106-20","","0","1020106","",""
"1020107-20","","諸富支所前(2)","","33.22287","130.3533","1020107-20","","0","1020107","",""
"1020108-20","","諸富橋(2)","","33.22293","130.36049","1020108-20","","0","1020108","",""
"1020109-20","","昇開橋前(2)","","33.21791","130.36084","1020109-20","","0","1020109","",""
"1020110-20","","石塚(2)","","33.21554","130.35638","1020110-20","","0","1020110","",""
"1020111-20","","浮盃(2)","","33.21407","130.35289","1020111-20","","0","1020111","",""
"1020112-20","","寺井橋(2)","","33.21359","130.347","1020112-20","","0","1020112","",""
"1020113-10","","上下角","","33.212837","130.34223","1020113-10","","0","1020113","",""
"1020114-20","","佐野常民記念館入口(2)","","33.21267","130.33768","1020114-20","","0","1020114","",""
"1020115-20","","上早(2)","","33.21119","130.33548","1020115-20","","0","1020115","",""
"1020116-20","","中川副小学校前(2)","","33.20882","130.3354","1020116-20","","0","1020116","",""
"1020118-00","","早津江","","33.20546","130.3353","1020118-00","","0","1020118","",""
"1020117-00","","中早","","33.20673","130.33524","1020117-00","","0","1020117","",""
"1020116-10","","中川副小学校前(1)","","33.20877","130.33531","1020116-10","","0","1020116","",""
"1020115-10","","上早(1)","","33.21098","130.33537","1020115-10","","0","1020115","",""
"1020114-10","","佐野常民記念館入口(1)","","33.2128","130.33769","1020114-10","","0","1020114","",""
"1020113-20","","上下角","","33.212929","130.342592","1020113-20","","0","1020113","",""
"1020112-10","","寺井橋(1)","","33.21371","130.34642","1020112-10","","0","1020112","",""
"1020111-10","","浮盃(1)","","33.21412","130.35271","1020111-10","","0","1020111","",""
"1020110-10","","石塚(1)","","33.21553","130.35622","1020110-10","","0","1020110","",""
"1020109-10","","昇開橋前(1)","","33.2184","130.36099","1020109-10","","0","1020109","",""
"1020108-10","","諸富橋(1)","","33.22254","130.36145","1020108-10","","0","1020108","",""
"1020107-10","","諸富支所前(1)","","33.22268","130.35353","1020107-10","","0","1020107","",""
"1020106-10","","小杭(1)","","33.22456","130.34917","1020106-10","","0","1020106","",""
"1020105-10","","野町(1)","","33.226517","130.344875","1020105-10","","0","1020105","",""
"1020104-10","","山領(1)","","33.2282","130.34114","1020104-10","","0","1020104","",""
"1020103-10","","山領北(1)","","33.23013","130.33691","1020103-10","","0","1020103","",""
"1020102-10","","光法(1)","","33.23295","130.33052","1020102-10","","0","1020102","",""
"1020101-10","","光法西(1)","","33.23423","130.32762","1020101-10","","0","1020101","",""
"1020100-10","","千々岩(1)","","33.2355","130.32481","1020100-10","","0","1020100","",""
"1020099-10","","東高校前(1)","","33.23755","130.32016","1020099-10","","0","1020099","",""
"1020098-10","","南佐賀(1)","","33.23907","130.31671","1020098-10","","0","1020098","",""
"1020097-10","","自動車学校前(1)","","33.24046","130.31364","1020097-10","","0","1020097","",""
"1020096-02","","大崎(2)","","33.24173","130.31017","1020096-02","","0","1020096","",""
"1021119-20","","水ヶ江(2)","","33.2471","130.30908","1021119-20","","0","1021119","",""
"1021120-10","","朝日町(1)","","33.24748","130.31224","1021120-10","","0","1021120","",""
"1021121-20","","安住団地入口(2)","","33.24523","130.31444","1021121-20","","0","1021121","",""
"1021122-20","","武藤(2)","","33.24207","130.3161","1021122-20","","0","1021122","",""
"1021123-20","","中原眼科前(2)","","33.24112","130.32079","1021123-20","","0","1021123","",""
"1021124-20","","北川副小西(2)","","33.24029","130.32257","1021124-20","","0","1021124","",""
"1021125-20","","北川副公民館前(2)","","33.2391","130.32469","1021125-20","","0","1021125","",""
"1021126-20","","江上(2)","","33.23926","130.3277","1021126-20","","0","1021126","",""
"1021127-20","","増田宿(2)","","33.2388","130.33157","1021127-20","","0","1021127","",""
"1021128-20","","光法団地前(2)","","33.23587","130.33182","1021128-20","","0","1021128","",""
"1021129-20","","光法北(2)","","33.23342","130.33192","1021129-20","","0","1021129","",""
"1021130-20","","諸富橋北(2)","","33.22437","130.36456","1021130-20","","0","1021130","",""
"1021131-20","","味の素東門(2)","","33.22566","130.36603","1021131-20","","0","1021131","",""
"1021132-20","","徳富大橋(2)","","33.22955","130.37042","1021132-20","","0","1021132","",""
"1021133-20","","徳富(2)","","33.23484","130.37085","1021133-20","","0","1021133","",""
"1021134-00","","橋津","","33.23615","130.3698","1021134-00","","0","1021134","",""
"1021133-10","","徳富(1)","","33.23503","130.3708","1021133-10","","0","1021133","",""
"1021132-10","","徳富大橋(1)","","33.22923","130.3703","1021132-10","","0","1021132","",""
"1021131-10","","味の素東門(1)","","33.22527","130.3656","1021131-10","","0","1021131","",""
"1021130-10","","諸富橋北(1)","","33.22313","130.36362","1021130-10","","0","1021130","",""
"1021129-10","","光法北(1)","","33.23372","130.33179","1021129-10","","0","1021129","",""
"1021128-10","","光法団地前(1)","","33.23596","130.33171","1021128-10","","0","1021128","",""
"1021127-10","","増田宿(1)","","33.23855","130.33151","1021127-10","","0","1021127","",""
"1021126-10","","江上(1)","","33.23919","130.32738","1021126-10","","0","1021126","",""
"1021125-10","","北川副公民館前(1)","","33.23889","130.32327","1021125-10","","0","1021125","",""
"1021124-10","","北川副小西(1)","","33.23995","130.32237","1021124-10","","0","1021124","",""
"1021123-10","","中原眼科前(1)","","33.24092","130.3206","1021123-10","","0","1021123","",""
"1021122-10","","武藤(1)","","33.24208","130.31606","1021122-10","","0","1021122","",""
"1021121-10","","安住団地入口(1)","","33.24539","130.31435","1021121-10","","0","1021121","",""
"1021120-20","","朝日町(2)","","33.24732","130.3119","1021120-20","","0","1021120","",""
"1021119-10","","水ヶ江(1)","","33.247","130.30925","1021119-10","","0","1021119","",""
"1001002-02","","佐賀駅バスセンター(2)","","33.26445","130.29951","1001002-02","","0","1001002","",""
"1030219-02","","堀江通(2)","","33.26412","130.29416","1030219-02","","0","1030219","",""
"1030220-20","","東神野(2)","","33.2658","130.29347","1030220-20","","0","1030220","",""
"1030221-20","","三溝(2)","","33.26921","130.29375","1030221-20","","0","1030221","",""
"1030222-20","","商業高校前(2)","","33.27101","130.29388","1030222-20","","0","1030222","",""
"1030223-20","","市文化会館前(2)","","33.27649","130.29311","1030223-20","","0","1030223","",""
"1030224-20","","総合体育館前(2)","","33.2789","130.2925","1030224-20","","0","1030224","",""
"1030225-20","","館橋(2)","","33.28109","130.29205","1030225-20","","0","1030225","",""
"1030226-20","","高木瀬小学校前(2)","","33.28419","130.2912","1030226-20","","0","1030226","",""
"1030227-03","","高木瀬公民館前(3)","","33.28669","130.28943","1030227-03","","0","1030227","",""
"1030228-20","","高木瀬工場団地(2)","","33.28812","130.28841","1030228-20","","0","1030228","",""
"1030229-20","","三本松(2)","","33.29486","130.2867","1030229-20","","0","1030229","",""
"1030230-20","","川原(2)","","33.29863","130.28543","1030230-20","","0","1030230","",""
"1030231-20","","福田(2)","","33.30158","130.28442","1030231-20","","0","1030231","",""
"1030232-20","","グリコ乳業前(2)","","33.304326","130.283391","1030232-20","","0","1030232","",""
"1030233-20","","尼寺(2)","","33.30856","130.28197","1030233-20","","0","1030233","",""
"1030234-02","","尼寺東(2)","","33.311","130.28474","1030234-02","","0","1030234","",""
"1030235-10","","真島(1)","","33.31116","130.2879","1030235-10","","0","1030235","",""
"1030236-20","","福島(2)","","33.31093","130.2925","1030236-20","","0","1030236","",""
"1030237-20","","西千布(2)","","33.31054","130.2973","1030237-20","","0","1030237","",""
"1030238-20","","千布(2)","","33.31033","130.29997","1030238-20","","0","1030238","",""
"1030239-20","","金立団地前(2)","","33.3122","130.30092","1030239-20","","0","1030239","",""
"1030240-20","","整肢学園前(2)","","33.315499","130.301028","1030240-20","","0","1030240","",""
"1030241-20","","金立(2)","","33.31881","130.30103","1030241-20","","0","1030241","",""
"1030242-20","","正現社前(2)","","33.32054","130.30232","1030242-20","","0","1030242","",""
"1030243-20","","来迎寺(2)","","33.32154","130.30588","1030243-20","","0","1030243","",""
"1030244-20","","若宮原(2)","","33.32251","130.31284","1030244-20","","0","1030244","",""
"1030245-20","","自動車試験場前(2)","","33.3237","130.31604","1030245-20","","0","1030245","",""
"1030246-00","","運転免許センター","","33.32443","130.31787","1030246-00","","0","1030246","",""
"1030245-10","","自動車試験場前(1)","","33.3236","130.31622","1030245-10","","0","1030245","",""
"1030244-10","","若宮原(1)","","33.32254","130.31331","1030244-10","","0","1030244","",""
"1030243-10","","来迎寺(1)","","33.32151","130.30641","1030243-10","","0","1030243","",""
"1030242-10","","正現社前(1)","","33.32061","130.30254","1030242-10","","0","1030242","",""
"1030241-10","","金立(1)","","33.31923","130.30133","1030241-10","","0","1030241","",""
"1030240-10","","整肢学園前(1)","","33.314602","130.301099","1030240-10","","0","1030240","",""
"1030239-10","","金立団地前(1)","","33.31202","130.30103","1030239-10","","0","1030239","",""
"1030238-10","","千布(1)","","33.3102","130.30026","1030238-10","","0","1030238","",""
"1030237-10","","西千布(1)","","33.31045","130.29726","1030237-10","","0","1030237","",""
"1030236-10","","福島(1)","","33.31089","130.29245","1030236-10","","0","1030236","",""
"1030234-01","","尼寺東(1)","","33.31089","130.28452","1030234-01","","0","1030234","",""
"1030233-10","","尼寺(1)","","33.30854","130.2821","1030233-10","","0","1030233","",""
"1030232-10","","グリコ乳業前(1)","","33.304763","130.283353","1030232-10","","0","1030232","",""
"1030231-10","","福田(1)","","33.30198","130.28438","1030231-10","","0","1030231","",""
"1030230-10","","川原(1)","","33.29902","130.28534","1030230-10","","0","1030230","",""
"1030229-10","","三本松(1)","","33.29468","130.28687","1030229-10","","0","1030229","",""
"1030228-10","","高木瀬工場団地(1)","","33.28853","130.2883","1030228-10","","0","1030228","",""
"1030227-01","","高木瀬公民館前(1)","","33.2865","130.2897","1030227-01","","0","1030227","",""
"1030226-10","","高木瀬小学校前(1)","","33.28436","130.29123","1030226-10","","0","1030226","",""
"1030225-10","","館橋(1)","","33.28097","130.29225","1030225-10","","0","1030225","",""
"1030224-10","","総合体育館前(1)","","33.27824","130.29289","1030224-10","","0","1030224","",""
"1030223-10","","市文化会館前(1)","","33.27626","130.29344","1030223-10","","0","1030223","",""
"1030222-10","","商業高校前(1)","","33.27176","130.2941","1030222-10","","0","1030222","",""
"1030221-10","","三溝(1)","","33.26902","130.29391","1030221-10","","0","1030221","",""
"1030220-10","","東神野(1)","","33.26747","130.29382","1030220-10","","0","1030220","",""
"1030219-01","","堀江通(1)","","33.26472","130.29364","1030219-01","","0","1030219","",""
"1030218-03","","佐賀駅北口(3)","","33.26462","130.295976","1030218-03","","0","1030218","",""
"1030247-00","","開拓入口","","33.32502","130.30476","1030247-00","","0","1030247","",""
"1030248-20","","弘学館前(2)","","33.32813","130.30524","1030248-20","","0","1030248","",""
"1030249-20","","金立いこいの広場(2)","","33.32832","130.30893","1030249-20","","0","1030249","",""
"1030250-20","","島崎(2)","","33.32487","130.30865","1030250-20","","0","1030250","",""
"1030250-10","","島崎(1)","","33.32523","130.30855","1030250-10","","0","1030250","",""
"1030249-10","","金立いこいの広場(1)","","33.32822","130.30862","1030249-10","","0","1030249","",""
"1030248-10","","弘学館前(1)","","33.328","130.30528","1030248-10","","0","1030248","",""
"1003021-00","","佐賀女子短大・高校前","","33.24626","130.28627","1003021-00","","0","1003021","",""
"1003016-10","","道祖元町(1)","","33.24747","130.28499","1003016-10","","0","1003016","",""
"1003015-10","","西田代(1)","","33.24941","130.288058","1003015-10","","0","1003015","",""
"1003013-10","","辻の堂(1)","","33.250118","130.293428","1003013-10","","0","1003013","",""
"1003012-00","","県警本部前","","33.250695","130.298559","1003012-00","","0","1003012","",""
"1003020-10","","旭学園通り南(1)","","33.24424","130.28656","1003020-10","","0","1003020","",""
"1003019-10","","佐賀大学西(1)","","33.24448","130.28828","1003019-10","","0","1003019","",""
"1003018-01","","佐賀大学前(1)","","33.2456","130.29308","1003018-01","","0","1003018","",""
"1003017-10","","与賀町(1)","","33.24912","130.2925","1003017-10","","0","1003017","",""
"1001002-04","","佐賀駅バスセンター(4)","","33.26442","130.29926","1001002-04","","0","1001002","",""
"1003011-00","","県庁前","","33.250532","130.298565","1003011-00","","0","1003011","",""
"1003013-20","","辻の堂(2)","","33.250109","130.294796","1003013-20","","0","1003013","",""
"1003017-20","","与賀町(2)","","33.2481","130.29295","1003017-20","","0","1003017","",""
"1003018-03","","佐賀大学前(3)","","33.24476","130.29268","1003018-03","","0","1003018","",""
"1003019-20","","佐賀大学西(2)","","33.24455","130.28891","1003019-20","","0","1003019","",""
"1003020-20","","旭学園通り南(2)","","33.24419","130.28682","1003020-20","","0","1003020","",""
"1003014-00","","与賀町西","","33.249783","130.291639","1003014-00","","0","1003014","",""
"1003015-20","","西田代(2)","","33.249142","130.287336","1003015-20","","0","1003015","",""
"1003016-20","","道祖元町(2)","","33.2475","130.28505","1003016-20","","0","1003016","",""
"1006034-00","","佐賀城跡","","33.2467","130.30214","1006034-00","","0","1006034","",""
"1006033-10","","サガテレビ前(1)","","33.24704","130.3008","1006033-10","","0","1006033","",""
"1006032-10","","県庁舎(1)","","33.24837","130.30051","1006032-10","","0","1006032","",""
"1006032-20","","県庁舎(2)","","33.2484","130.30063","1006032-20","","0","1006032","",""
"1006033-20","","サガテレビ前(2)","","33.24727","130.30084","1006033-20","","0","1006033","",""
"1030234-03","","尼寺東(3)","","33.309635","130.283862","1030234-03","","0","1030234","",""
"1030235-20","","真島(2)","","33.31087","130.28856","1030235-20","","0","1030235","",""
"1024168-02","","どんどんどんの森東(2)","","33.2628","130.2935","1024168-02","","0","1024168","",""
"1058324-20","","どんどんどんの森前(2)","","33.25914","130.29182","1058324-20","","0","1058324","",""
"1058325-20","","多布施(2)","","33.25898","130.29041","1058325-20","","0","1058325","",""
"1058326-20","","多布施橋(2)","","33.25855","130.28633","1058326-20","","0","1058326","",""
"1058327-20","","佐賀工業高校前(2)","","33.2579","130.28421","1058327-20","","0","1058327","",""
"1058328-20","","中折(2)","","33.25735","130.2823","1058328-20","","0","1058328","",""
"1058329-20","","北高前(2)","","33.25642","130.27798","1058329-20","","0","1058329","",""
"1058330-20","","新栄小前(2)","","33.25628","130.27544","1058330-20","","0","1058330","",""
"1058331-20","","新栄小西(2)","","33.25608","130.27116","1058331-20","","0","1058331","",""
"1058332-20","","鍋島駅南(2)","","33.25579","130.26526","1058332-20","","0","1058332","",""
"1058333-20","","鍋島駅西(2)","","33.2617","130.26306","1058333-20","","0","1058333","",""
"1058334-20","","江頭西(2)","","33.26419","130.26262","1058334-20","","0","1058334","",""
"1058335-00","","市営江頭団地前","","33.2650488","130.2615934","1058335-00","","0","1058335","",""
"1058336-10","","クレオパーク鍋島北(1)","","33.26663","130.25948","1058336-10","","0","1058336","",""
"1058337-10","","クレオパーク鍋島(1)","","33.26495","130.25958","1058337-10","","0","1058337","",""
"1058334-10","","江頭西(1)","","33.26382","130.26279","1058334-10","","0","1058334","",""
"1058333-10","","鍋島駅西(1)","","33.26146","130.26323","1058333-10","","0","1058333","",""
"1058332-10","","鍋島駅南(1)","","33.25586","130.26553","1058332-10","","0","1058332","",""
"1058331-10","","新栄小西(1)","","33.25609","130.26994","1058331-10","","0","1058331","",""
"1058330-10","","新栄小前(1)","","33.2563","130.27626","1058330-10","","0","1058330","",""
"1058329-10","","北高前(1)","","33.25665","130.27917","1058329-10","","0","1058329","",""
"1058328-10","","中折(1)","","33.25737","130.28227","1058328-10","","0","1058328","",""
"1058327-10","","佐賀工業高校前(1)","","33.25796","130.28415","1058327-10","","0","1058327","",""
"1058326-10","","多布施橋(1)","","33.25856","130.28625","1058326-10","","0","1058326","",""
"1058325-10","","多布施(1)","","33.25889","130.28908","1058325-10","","0","1058325","",""
"1058324-10","","どんどんどんの森前(1)","","33.25909","130.29076","1058324-10","","0","1058324","",""
"1024168-01","","どんどんどんの森東(1)","","33.26216","130.29324","1024168-01","","0","1024168","",""
"1030219-04","","堀江通(4)","","33.26297","130.29329","1030219-04","","0","1030219","",""
"1024169-20","","駅南本町西(2)","","33.26157","130.29732","1024169-20","","0","1024169","",""
"1024168-04","","どんどんどんの森東(4)","","33.26138","130.29376","1024168-04","","0","1024168","",""
"1059338-20","","新栄団地(2)","","33.2596","130.27713","1059338-20","","0","1059338","",""
"1059339-20","","八戸溝一丁目(2)","","33.2612","130.27522","1059339-20","","0","1059339","",""
"1059340-20","","八戸溝二丁目(2)","","33.26172","130.27408","1059340-20","","0","1059340","",""
"1059341-20","","西佐賀団地(2)","","33.26128","130.27026","1059341-20","","0","1059341","",""
"1059342-20","","鍋島駅北(2)","","33.26051","130.26585","1059342-20","","0","1059342","",""
"1059343-00","","江頭","","33.26268","130.2641","1059343-00","","0","1059343","",""
"1059344-20","","深町(2)","","33.25474","130.26428","1059344-20","","0","1059344","",""
"1059345-20","","扇町北(2)","","33.24553","130.26585","1059345-20","","0","1059345","",""
"1019091-00","","医療センター好生館","","33.241555","130.267985","1019091-00","","0","1019091","",""
"1059345-10","","扇町北(1)","","33.24562","130.26576","1059345-10","","0","1059345","",""
"1059344-10","","深町(1)","","33.25499","130.26419","1059344-10","","0","1059344","",""
"1059342-10","","鍋島駅北(1)","","33.2606","130.26619","1059342-10","","0","1059342","",""
"1059341-10","","西佐賀団地(1)","","33.26141","130.27049","1059341-10","","0","1059341","",""
"1059340-10","","八戸溝二丁目(1)","","33.26178","130.27405","1059340-10","","0","1059340","",""
"1059339-10","","八戸溝一丁目(1)","","33.26164","130.27522","1059339-10","","0","1059339","",""
"1059338-10","","新栄団地(1)","","33.25946","130.27722","1059338-10","","0","1059338","",""
"1024168-03","","どんどんどんの森東(3)","","33.26151","130.2939","1024168-03","","0","1024168","",""
"1024169-10","","駅南本町西(1)","","33.26164","130.29707","1024169-10","","0","1024169","",""
"1024156-20","","博物館前(2)","","33.24509","130.3015","1024156-20","","0","1024156","",""
"1024157-20","","赤松小学校前(2)","","33.24311","130.30197","1024157-20","","0","1024157","",""
"1024158-20","","中の館(2)","","33.24207","130.30209","1024158-20","","0","1024158","",""
"1024159-20","","鬼丸(2)","","33.24008","130.30219","1024159-20","","0","1024159","",""
"1025170-20","","袋入口(2)","","33.23743","130.30188","1025170-20","","0","1025170","",""
"1025171-00","","末次","","33.2343","130.30161","1025171-00","","0","1025171","",""
"1025172-20","","末次南(2)","","33.23069","130.30188","1025172-20","","0","1025172","",""
"1025173-00","","満穴","","33.2275","130.30203","1025173-00","","0","1025173","",""
"1025174-00","","中島","","33.22463","130.30246","1025174-00","","0","1025174","",""
"1025175-00","","立野北","","33.22261","130.30214","1025175-00","","0","1025175","",""
"1025176-00","","立野","","33.22041","130.30194","1025176-00","","0","1025176","",""
"1025177-00","","西船津","","33.21111","130.30115","1025177-00","","0","1025177","",""
"1025178-00","","佐房","","33.20796","130.29932","1025178-00","","0","1025178","",""
"1025179-00","","新村","","33.20406","130.29813","1025179-00","","0","1025179","",""
"1025180-00","","久町","","33.19907","130.29802","1025180-00","","0","1025180","",""
"1025181-00","","広江","","33.19752","130.29768","1025181-00","","0","1025181","",""
"1025182-20","","小々森(2)","","33.19707","130.30527","1025182-20","","0","1025182","",""
"1025183-00","","南部消防署前","","33.19746","130.31117","1025183-00","","0","1025183","",""
"1025182-10","","小々森(1)","","33.19682","130.30466","1025182-10","","0","1025182","",""
"1025172-10","","末次南(1)","","33.23127","130.30179","1025172-10","","0","1025172","",""
"1025170-10","","袋入口(1)","","33.23769","130.30173","1025170-10","","0","1025170","",""
"1024159-10","","鬼丸(1)","","33.23986","130.30209","1024159-10","","0","1024159","",""
"1024158-10","","中の館(1)","","33.24218","130.302","1024158-10","","0","1024158","",""
"1024157-10","","赤松小学校前(1)","","33.24397","130.3017","1024157-10","","0","1024157","",""
"1024156-10","","博物館前(1)","","33.24504","130.30141","1024156-10","","0","1024156","",""
"1001002-01","","佐賀駅バスセンター(1)","","33.26451","130.29974","1001002-01","","0","1001002","",""
"1011035-20","","市役所南(2)","","33.262594","130.30124","1011035-20","","0","1011035","",""
"1011036-20","","戸上電機前(2)","","33.261911","130.303661","1011036-20","","0","1011036","",""
"1056303-20","","大財五丁目(2)","","33.26181","130.30847","1056303-20","","0","1056303","",""
"1056304-20","","大財六丁目(2)","","33.26247","130.31151","1056304-20","","0","1056304","",""
"1056305-20","","下村河畔(2)","","33.26328","130.31578","1056305-20","","0","1056305","",""
"1056306-20","","佐賀中部病院西(2)","","33.264","130.31702","1056306-20","","0","1056306","",""
"1056307-20","","東中野(2)","","33.26653","130.31575","1056307-20","","0","1056307","",""
"1056308-20","","兵庫小学校西(2)","","33.27217","130.31754","1056308-20","","0","1056308","",""
"1056309-00","","下渕南","","33.2736","130.31734","1056309-00","","0","1056309","",""
"1056310-00","","下渕","","33.27771","130.31651","1056310-00","","0","1056310","",""
"1056311-00","","妙常寺前","","33.28048","130.31544","1056311-00","","0","1056311","",""
"1056312-00","","うえむら病院前","","33.28223","130.31462","1056312-00","","0","1056312","",""
"1056313-20","","兵庫団地前(2)","","33.28438","130.31471","1056313-20","","0","1056313","",""
"1056314-00","","初町","","33.28874","130.31458","1056314-00","","0","1056314","",""
"1056315-00","","東渕","","33.29063","130.31419","1056315-00","","0","1056315","",""
"1056316-00","","渕頭","","33.29187","130.31374","1056316-00","","0","1056316","",""
"1056317-20","","かささぎの里前(2)","","33.30112","130.31317","1056317-20","","0","1056317","",""
"1056318-20","","徳永(2)","","33.30288","130.31419","1056318-20","","0","1056318","",""
"1056319-20","","白鬚神社前(2)","","33.30373","130.31888","1056319-20","","0","1056319","",""
"1056320-20","","村徳永(2)","","33.30809","130.31906","1056320-20","","0","1056320","",""
"1056321-20","","工業団地事務所前(2)","","33.31185","130.31859","1056321-20","","0","1056321","",""
"1056322-20","","久保泉工業団地西(2)","","33.31261","130.31964","1056322-20","","0","1056322","",""
"1056323-00","","久保泉工業団地","","33.31266","130.32291","1056323-00","","0","1056323","",""
"1056322-10","","久保泉工業団地西(1)","","33.31247","130.31967","1056322-10","","0","1056322","",""
"1056321-10","","工業団地事務所前(1)","","33.3112","130.31876","1056321-10","","0","1056321","",""
"1056320-10","","村徳永(1)","","33.30783","130.31924","1056320-10","","0","1056320","",""
"1056319-10","","白鬚神社前(1)","","33.30376","130.31834","1056319-10","","0","1056319","",""
"1056318-10","","徳永(1)","","33.30281","130.31404","1056318-10","","0","1056318","",""
"1056317-10","","かささぎの里前(1)","","33.30116","130.31329","1056317-10","","0","1056317","",""
"1056313-10","","兵庫団地前(1)","","33.28435","130.31482","1056313-10","","0","1056313","",""
"1056308-10","","兵庫小学校西(1)","","33.27246","130.3176","1056308-10","","0","1056308","",""
"1056307-10","","東中野(1)","","33.26635","130.31604","1056307-10","","0","1056307","",""
"1056306-10","","佐賀中部病院西(1)","","33.26427","130.31714","1056306-10","","0","1056306","",""
"1056305-10","","下村河畔(1)","","33.26313","130.31523","1056305-10","","0","1056305","",""
"1056304-10","","大財六丁目(1)","","33.26221","130.31102","1056304-10","","0","1056304","",""
"1056303-10","","大財五丁目(1)","","33.26163","130.30818","1056303-10","","0","1056303","",""
"1011036-10","","戸上電機前(1)","","33.261887","130.303577","1011036-10","","0","1011036","",""
"1011035-10","","市役所南(1)","","33.262689","130.302003","1011035-10","","0","1011035","",""
"1030218-02","","佐賀駅北口(2)","","33.26554","130.29716","1030218-02","","0","1030218","",""
"1036265-20","","九電工前(2)","","33.26682","130.29521","1036265-20","","0","1036265","",""
"1036266-20","","電通通り(2)","","33.26617","130.29106","1036266-20","","0","1036266","",""
"1036267-20","","真生幼稚園前(2)","","33.26627","130.28728","1036267-20","","0","1036267","",""
"1036268-20","","神野西四丁目(2)","","33.26844","130.28697","1036268-20","","0","1036268","",""
"1036269-20","","西九大神園前(2)","","33.27185","130.28648","1036269-20","","0","1036269","",""
"1036270-20","","若楠小学校前(2)","","33.27591","130.28592","1036270-20","","0","1036270","",""
"1036271-20","","運輸支局西(2)","","33.27896","130.28476","1036271-20","","0","1036271","",""
"1036272-20","","北陵高校前(2)","","33.28135","130.28403","1036272-20","","0","1036272","",""
"1036273-20","","市営高木団地(2)","","33.28335","130.28377","1036273-20","","0","1036273","",""
"1036274-20","","高木瀬西四丁目(2)","","33.28527","130.28433","1036274-20","","0","1036274","",""
"1036275-20","","高木瀬西五丁目(2)","","33.28577","130.28735","1036275-20","","0","1036275","",""
"1036276-04","","アルタ高木瀬店前(4)","","33.29217","130.28552","1036276-04","","0","1036276","",""
"1036277-00","","佐賀記念病院","","33.29309","130.28262","1036277-00","","0","1036277","",""
"1036276-03","","アルタ高木瀬店前(3)","","33.29207","130.28584","1036276-03","","0","1036276","",""
"1030227-02","","高木瀬公民館(2)","","33.285929","130.28889","1030227-02","","0","1030227","",""
"1036275-10","","高木瀬西五丁目(1)","","33.28566","130.28714","1036275-10","","0","1036275","",""
"1036274-10","","高木瀬西四丁目(1)","","33.28524","130.28456","1036274-10","","0","1036274","",""
"1036273-10","","市営高木団地(1)","","33.28278","130.28395","1036273-10","","0","1036273","",""
"1036272-10","","北陵高校前(1)","","33.28119","130.28415","1036272-10","","0","1036272","",""
"1036271-10","","運輸支局西(1)","","33.27897","130.28485","1036271-10","","0","1036271","",""
"1036270-10","","若楠小学校前(1)","","33.2752","130.28618","1036270-10","","0","1036270","",""
"1036269-10","","西九大神園前(1)","","33.27205","130.28662","1036269-10","","0","1036269","",""
"1036268-10","","神野西四丁目(1)","","33.26825","130.28706","1036268-10","","0","1036268","",""
"1036267-10","","真生幼稚園前(1)","","33.26582","130.28799","1036267-10","","0","1036267","",""
"1036266-10","","電通通り(1)","","33.26625","130.29097","1036266-10","","0","1036266","",""
"1036265-10","","九電工前(1)","","33.26694","130.29567","1036265-10","","0","1036265","",""
"1030218-01","","佐賀駅北口(1)","","33.26532","130.29736","1030218-01","","0","1030218","",""
"1005023-20","","佐賀学園北(2)","","33.2677","130.30051","1005023-20","","0","1005023","",""
"1032251-20","","藤木(2)","","33.27032","130.30075","1032251-20","","0","1032251","",""
"1032252-20","","致遠館前(2)","","33.27206","130.30034","1032252-20","","0","1032252","",""
"1032253-20","","警察署前(2)","","33.27436","130.29971","1032253-20","","0","1032253","",""
"1032254-20","","市文化会館東(2)","","33.27786","130.29878","1032254-20","","0","1032254","",""
"1032255-00","","東高木","","33.28245","130.2984","1032255-00","","0","1032255","",""
"1032256-20","","寄人(2)","","33.28611","130.29788","1032256-20","","0","1032256","",""
"1032257-20","","城北団地(2)","","33.28786","130.29782","1032257-20","","0","1032257","",""
"1032258-00","","二俣","","33.29016","130.29794","1032258-00","","0","1032258","",""
"1032261-20","","グラスコート佐賀(2)","","33.30038","130.29715","1032261-20","","0","1032261","",""
"1032262-20","","千布南(2)","","33.30606","130.29948","1032262-20","","0","1032262","",""
"1032263-20","","東千布(2)","","33.30748","130.30051","1032263-20","","0","1032263","",""
"1032264-00","","金立公民館前","","33.30748","130.30341","1032264-00","","0","1032264","",""
"1032259-20","","金立ケアセンター前(2)","","33.29759","130.29738","1032259-20","","0","1032259","",""
"1032260-10","","健康運動センター(1)","","33.29786","130.29366","1032260-10","","0","1032260","",""
"1032263-10","","東千布(1)","","33.30773","130.3009","1032263-10","","0","1032263","",""
"1032262-10","","千布南(1)","","33.30611","130.29964","1032262-10","","0","1032262","",""
"1032261-10","","グラスコート佐賀(1)","","33.29991","130.29741","1032261-10","","0","1032261","",""
"1032259-10","","金立ケアセンター前(1)","","33.29771","130.29739","1032259-10","","0","1032259","",""
"1032257-10","","城北団地(1)","","33.28812","130.29796","1032257-10","","0","1032257","",""
"1032256-10","","寄人(1)","","33.28542","130.29799","1032256-10","","0","1032256","",""
"1032254-10","","市文化会館東(1)","","33.27874","130.29865","1032254-10","","0","1032254","",""
"1032253-10","","警察署前(1)","","33.27387","130.3","1032253-10","","0","1032253","",""
"1032252-10","","致遠館前(1)","","33.27199","130.30043","1032252-10","","0","1032252","",""
"1032251-10","","藤木(1)","","33.2699","130.30101","1032251-10","","0","1032251","",""
"1005023-10","","佐賀学園北(1)","","33.26755","130.30011","1005023-10","","0","1005023","",""
"1011037-20","","大財町(2)","","33.257961","130.304731","1011037-20","","0","1011037","",""
"1011038-20","","呉服元町(2)","","33.25357","130.30567","1011038-20","","0","1011038","",""
"1011039-01","","片田江(1)[片田江北]","","33.251869","130.306039","1011039-01","","0","1011039","",""
"1003018-02","","佐賀大学前(2)","","33.24403","130.29375","1003018-02","","0","1003018","",""
"1012057-20","","佐賀大学東(2)","","33.24168","130.29431","1012057-20","","0","1012057","",""
"1012058-20","","なゆたの森病院前(2)","","33.23708","130.29425","1012058-20","","0","1012058","",""
"1012059-20","","本庄小学校前(2)","","33.23542","130.29381","1012059-20","","0","1012059","",""
"1012060-20","","本庄公民館前(2)","","33.23333","130.29384","1012060-20","","0","1012060","",""
"1012061-20","","鹿の子団地(2)","","33.23013","130.29398","1012061-20","","0","1012061","",""
"1012062-20","","鹿の子(2)","","33.22601","130.29424","1012062-20","","0","1012062","",""
"1012063-20","","鹿の子宮前(2)","","33.22184","130.29453","1012063-20","","0","1012063","",""
"1012064-20","","上古賀(2)","","33.2174","130.29291","1012064-20","","0","1012064","",""
"1012065-20","","下古賀(2)","","33.21346","130.29138","1012065-20","","0","1012065","",""
"1012066-20","","田中(2)","","33.21157","130.28831","1012066-20","","0","1012066","",""
"1012067-20","","東与賀支所前(2)","","33.20824","130.28726","1012067-20","","0","1012067","",""
"1012068-20","","東与賀郵便局前(2)","","33.2042","130.28619","1012068-20","","0","1012068","",""
"1012069-20","","作出(2)","","33.20152","130.28584","1012069-20","","0","1012069","",""
"1012070-20","","住吉(2)","","33.20119","130.27957","1012070-20","","0","1012070","",""
"1012071-20","","大野東(2)","","33.20237","130.27573","1012071-20","","0","1012071","",""
"1012072-20","","大野中(2)","","33.20281","130.27315","1012072-20","","0","1012072","",""
"1012073-00","","大野","","33.20308","130.27011","1012073-00","","0","1012073","",""
"1012072-10","","大野中(1)","","33.20282","130.27364","1012072-10","","0","1012072","",""
"1012071-10","","大野東(1)","","33.20226","130.27628","1012071-10","","0","1012071","",""
"1012070-10","","住吉(1)","","33.20123","130.2795","1012070-10","","0","1012070","",""
"1012069-10","","作出(1)","","33.20178","130.28583","1012069-10","","0","1012069","",""
"1012068-10","","東与賀郵便局前(1)","","33.20435","130.28616","1012068-10","","0","1012068","",""
"1012067-10","","東与賀支所前(1)","","33.20803","130.28725","1012067-10","","0","1012067","",""
"1012066-10","","田中(1)","","33.21119","130.28806","1012066-10","","0","1012066","",""
"1012065-10","","下古賀(1)","","33.21416","130.29161","1012065-10","","0","1012065","",""
"1012064-10","","上古賀(1)","","33.21756","130.29295","1012064-10","","0","1012064","",""
"1012063-10","","鹿の子宮前(1)","","33.22204","130.29453","1012063-10","","0","1012063","",""
"1012062-10","","鹿の子(1)","","33.22646","130.29414","1012062-10","","0","1012062","",""
"1012061-10","","鹿の子団地(1)","","33.22944","130.29401","1012061-10","","0","1012061","",""
"1012060-10","","本庄公民館前(1)","","33.23225","130.29376","1012060-10","","0","1012060","",""
"1012059-10","","本庄小学校前(1)","","33.23552","130.29362","1012059-10","","0","1012059","",""
"1012058-10","","なゆたの森病院前(1)","","33.23751","130.29411","1012058-10","","0","1012058","",""
"1012057-10","","佐賀大学東(1)","","33.24156","130.29396","1012057-10","","0","1012057","",""
"1011038-10","","呉服元町(1)","","33.254591","130.305372","1011038-10","","0","1011038","",""
"1011037-10","","大財町(1)","","33.257996","130.304587","1011037-10","","0","1011037","",""
"1011044-10","","ちやの木(1)","","33.24376","130.28418","1011044-10","","0","1011044","",""
"1011045-20","","本庄宮前(2)","","33.24215","130.28107","1011045-20","","0","1011045","",""
"1011046-20","","平松(2)","","33.23848","130.27859","1011046-20","","0","1011046","",""
"1011047-20","","中村(2)","","33.2343","130.27583","1011047-20","","0","1011047","",""
"1011048-20","","今津上町(2)","","33.23129","130.27348","1011048-20","","0","1011048","",""
"1011049-20","","今津下町(2)","","33.22997","130.27238","1011049-20","","0","1011049","",""
"1011050-20","","ブルースタジアム前(2)","","33.22677","130.26981","1011050-20","","0","1011050","",""
"1011051-20","","高太郎橋(2)","","33.22281","130.26779","1011051-20","","0","1011051","",""
"1011052-20","","丸目(2)","","33.21874","130.26453","1011052-20","","0","1011052","",""
"1011053-04","","本庄江橋(4)","","33.21919","130.25688","1011053-04","","0","1011053","",""
"1011054-20","","久保田橋(2)","","33.21989","130.24843","1011054-20","","0","1011054","",""
"1011055-20","","久富(2)","","33.21999","130.24654","1011055-20","","0","1011055","",""
"1011056-20","","くぼた特産物直売所前(2)","","33.21982","130.24345","1011056-20","","0","1011056","",""
"1011055-10","","久富(1)","","33.22015","130.2466","1011055-10","","0","1011055","",""
"1011054-10","","久保田橋(1)","","33.21992","130.24913","1011054-10","","0","1011054","",""
"1011053-03","","本庄江橋(3)","","33.21929","130.25804","1011053-03","","0","1011053","",""
"1011052-10","","丸目(1)","","33.21886","130.26448","1011052-10","","0","1011052","",""
"1011051-10","","高太郎橋(1)","","33.22279","130.26773","1011051-10","","0","1011051","",""
"1011050-10","","ブルースタジアム前(1)","","33.227","130.26985","1011050-10","","0","1011050","",""
"1011049-10","","今津下町(1)","","33.23011","130.2724","1011049-10","","0","1011049","",""
"1011048-10","","今津上町(1)","","33.23246","130.27426","1011048-10","","0","1011048","",""
"1011047-10","","中村(1)","","33.2357","130.2767","1011047-10","","0","1011047","",""
"1011046-10","","平松(1)","","33.23923","130.27895","1011046-10","","0","1011046","",""
"1011045-10","","本庄宮前(1)","","33.24212","130.28094","1011045-10","","0","1011045","",""
"1011044-20","","ちやの木(2)","","33.24376","130.28412","1011044-20","","0","1011044","",""
"1011039-02","","片田江(2)[片田江東]","","33.251578","130.306742","1011039-02","","0","1011039","",""
"1028191-20","","材木橋(2)","","33.25187","130.308666","1028191-20","","0","1028191","",""
"1028192-20","","東佐賀(2)","","33.25195","130.31303","1028192-20","","0","1028192","",""
"1028193-10","","東田代(1)","","33.24865","130.31372","1028193-10","","0","1028193","",""
"1028194-20","","今宿町(2)","","33.24784","130.31554","1028194-20","","0","1028194","",""
"1028195-20","","枝吉(2)","","33.24773","130.31902","1028195-20","","0","1028195","",""
"1029201-20","","矢ヶ部医院前(2)","","33.2478","130.32346","1029201-20","","0","1029201","",""
"1029202-20","","江上町(2)","","33.24789","130.32646","1029202-20","","0","1029202","",""
"1029203-00","","江上町東","","33.24777","130.32986","1029203-00","","0","1029203","",""
"1029204-00","","増田口","","33.2471","130.33307","1029204-00","","0","1029204","",""
"1029205-00","","犬尾","","33.24683","130.33946","1029205-00","","0","1029205","",""
"1029206-20","","東西(2)","","33.24828","130.34175","1029206-20","","0","1029206","",""
"1029207-20","","東の巨勢(2)","","33.24763","130.34868","1029207-20","","0","1029207","",""
"1029208-10","","蓮池魚町(1)","","33.24647","130.35368","1029208-10","","0","1029208","",""
"1029209-20","","蓮池公園前(2)","","33.24649","130.35605","1029209-20","","0","1029209","",""
"1029210-00","","蓮池郵便局前","","33.24947","130.35658","1029210-00","","0","1029210","",""
"1029211-00","","中地橋","","33.25014","130.36079","1029211-00","","0","1029211","",""
"1029212-00","","芙蓉校前","","33.25008","130.36304","1029212-00","","0","1029212","",""
"1029213-20","","小松(2)","","33.2487","130.36494","1029213-20","","0","1029213","",""
"1029214-20","","堂地(2)","","33.24766","130.36838","1029214-20","","0","1029214","",""
"1029215-00","","蒲田津橋","","33.24497","130.36946","1029215-00","","0","1029215","",""
"1029216-20","","渡端(2)","","33.24215","130.36942","1029216-20","","0","1029216","",""
"1029217-00","","大堂","","33.23857","130.36913","1029217-00","","0","1029217","",""
"1029216-10","","渡端(1)","","33.24156","130.36958","1029216-10","","0","1029216","",""
"1029214-10","","堂地(1)","","33.24735","130.36864","1029214-10","","0","1029214","",""
"1029213-10","","小松(1)","","33.2486","130.36508","1029213-10","","0","1029213","",""
"1029209-10","","蓮池公園前(1)","","33.24643","130.35608","1029209-10","","0","1029209","",""
"1029208-20","","蓮池魚町(2)","","33.24643","130.35374","1029208-20","","0","1029208","",""
"1029207-10","","東の巨勢(1)","","33.24753","130.34859","1029207-10","","0","1029207","",""
"1029206-10","","東西(1)","","33.24817","130.3418","1029206-10","","0","1029206","",""
"1029202-10","","江上町(1)","","33.2478","130.32683","1029202-10","","0","1029202","",""
"1029201-10","","矢ヶ部医院前(1)","","33.24767","130.32336","1029201-10","","0","1029201","",""
"1028195-10","","枝吉(1)","","33.24761","130.319","1028195-10","","0","1028195","",""
"1028194-10","","今宿町(1)","","33.24774","130.31575","1028194-10","","0","1028194","",""
"1028193-20","","東田代(2)","","33.24858","130.31358","1028193-20","","0","1028193","",""
"1028192-10","","東佐賀(1)","","33.25187","130.31293","1028192-10","","0","1028192","",""
"1028191-10","","材木橋(1)","","33.251942","130.309847","1028191-10","","0","1028191","",""
"1011039-03","","片田江(3)[片田江東]","","33.251478","130.306743","1011039-03","","0","1011039","",""
"1028189-20","","副島病院前(2)","","33.25698","130.30414","1028189-20","","0","1028189","",""
"1028190-20","","エスプラッツ前(2)","","33.254604","130.302427","1028190-20","","0","1028190","",""
"1028196-20","","牛島下(2)","","33.24994","130.32187","1028196-20","","0","1028196","",""
"2015194-10","","高尾(1)","","33.25331","130.32291","2015194-10","","0","2015194","",""
"1028198-20","","老人センター前(2)","","33.25395","130.32541","1028198-20","","0","1028198","",""
"1028199-20","","巨勢公民館前(2)","","33.25498","130.32817","1028199-20","","0","1028199","",""
"1028200-10","","道崎(1)","","33.257638","130.336628","1028200-10","","0","1028200","",""
"1028199-10","","巨勢公民館前(1)","","33.25477","130.32823","1028199-10","","0","1028199","",""
"1028198-10","","老人センター前(1)","","33.25391","130.32568","1028198-10","","0","1028198","",""
"2015194-20","","高尾(2)","","33.25318","130.32303","2015194-20","","0","2015194","",""
"1028196-10","","牛島下(1)","","33.24995","130.32204","1028196-10","","0","1028196","",""
"1028190-10","","エスプラッツ前(1)","","33.254698","130.302336","1028190-10","","0","1028190","",""
"1028189-10","","副島病院前(1)","","33.25693","130.30367","1028189-10","","0","1028189","",""
"1050278-20","","西神野(2)","","33.26372","130.29018","1050278-20","","0","1050278","",""
"1050279-20","","昭和橋(2)","","33.26288","130.28442","1050279-20","","0","1050279","",""
"1050280-20","","神野公園(2)","","33.2647","130.2818","1050280-20","","0","1050280","",""
"1050281-20","","八戸溝郵便局前(2)","","33.26477","130.27794","1050281-20","","0","1050281","",""
"1050282-20","","鍋島団地(2)","","33.266","130.27638","1050282-20","","0","1050282","",""
"1050283-20","","鍋島新村(2)","","33.26877","130.27585","1050283-20","","0","1050283","",""
"1050284-20","","ＪＡ佐賀市せいぶ支所前(2)","","33.2719","130.27539","1050284-20","","0","1050284","",""
"1050285-20","","鍋島小学校前(2)","","33.27338","130.27078","1050285-20","","0","1050285","",""
"1050286-20","","鍋島一丁目(2)","","33.2757","130.2706","1050286-20","","0","1050286","",""
"1050287-20","","津留(2)","","33.27883","130.26991","1050287-20","","0","1050287","",""
"1050295-20","","医学部入口(2)","","33.28187","130.26909","1050295-20","","0","1050295","",""
"1050296-00","","佐賀大学病院","","33.2835","130.26709","1050296-00","","0","1050296","",""
"1050295-10","","医学部入口(1)","","33.28265","130.26884","1050295-10","","0","1050295","",""
"1050287-10","","津留(1)","","33.27949","130.26993","1050287-10","","0","1050287","",""
"1050286-10","","鍋島一丁目(1)","","33.2756","130.27065","1050286-10","","0","1050286","",""
"1050285-10","","鍋島小学校前(1)","","33.27367","130.2709","1050285-10","","0","1050285","",""
"1050284-10","","ＪＡ佐賀市せいぶ支所前(1)","","33.27179","130.27553","1050284-10","","0","1050284","",""
"1050283-10","","鍋島新村(1)","","33.26885","130.27589","1050283-10","","0","1050283","",""
"1050282-10","","鍋島団地(1)","","33.26589","130.27649","1050282-10","","0","1050282","",""
"1050281-10","","八戸溝郵便局前(1)","","33.26486","130.27818","1050281-10","","0","1050281","",""
"1050280-10","","神野公園(1)","","33.26483","130.28218","1050280-10","","0","1050280","",""
"1050279-10","","昭和橋(1)","","33.263","130.2841","1050279-10","","0","1050279","",""
"1050278-10","","西神野(1)","","33.26375","130.28925","1050278-10","","0","1050278","",""
"1030219-03","","堀江通(3)","","33.26395","130.29208","1030219-03","","0","1030219","",""
"1050288-20","","鍋島シェスト前(2)","","33.28006","130.26875","1050288-20","","0","1050288","",""
"1050289-20","","鍋島西団地(2)","","33.27979","130.2648","1050289-20","","0","1050289","",""
"1050290-20","","医学部西(2)","","33.2834","130.26315","1050290-20","","0","1050290","",""
"1050291-20","","鍋島五丁目(2)","","33.28678","130.26314","1050291-20","","0","1050291","",""
"1050292-10","","鍋島本村(1)","","33.28828","130.26389","1050292-10","","0","1050292","",""
"1050293-20","","鍋島六丁目(2)","","33.2884","130.26564","1050293-20","","0","1050293","",""
"1050294-20","","医学部北(2)","","33.28627","130.26839","1050294-20","","0","1050294","",""
"1050294-10","","医学部北(1)","","33.28671","130.26825","1050294-10","","0","1050294","",""
"1050293-10","","鍋島六丁目(1)","","33.28833","130.2661","1050293-10","","0","1050293","",""
"1050292-20","","鍋島本村(2)","","33.28822","130.26437","1050292-20","","0","1050292","",""
"1050291-10","","鍋島五丁目(1)","","33.28619","130.26315","1050291-10","","0","1050291","",""
"1050290-10","","医学部西(1)","","33.28292","130.26328","1050290-10","","0","1050290","",""
"1050289-10","","鍋島西団地(1)","","33.27991","130.26523","1050289-10","","0","1050289","",""
"1050288-10","","鍋島シェスト前(1)","","33.28013","130.26846","1050288-10","","0","1050288","",""
"1051297-20","","西九大神園南(2)","","33.26943","130.28459","1051297-20","","0","1051297","",""
"1051298-20","","常盤団地入口(2)","","33.2689","130.28163","1051298-20","","0","1051298","",""
"1051299-20","","鍋島東団地(2)","","33.26871","130.28021","1051299-20","","0","1051299","",""
"1051300-20","","開成三丁目(2)","","33.26971","130.27791","1051300-20","","0","1051300","",""
"1051301-20","","アルタ東(2)","","33.2716","130.27756","1051301-20","","0","1051301","",""
"1051302-10","","卸センター前(1)","","33.27259","130.27696","1051302-10","","0","1051302","",""
"1051301-10","","アルタ東(1)","","33.27168","130.27766","1051301-10","","0","1051301","",""
"1051300-10","","開成三丁目(1)","","33.26984","130.27797","1051300-10","","0","1051300","",""
"1051299-10","","鍋島東団地(1)","","33.26874","130.28003","1051299-10","","0","1051299","",""
"1051298-10","","常盤団地入口(1)","","33.269","130.28152","1051298-10","","0","1051298","",""
"1051297-10","","西九大神園南(1)","","33.26961","130.28505","1051297-10","","0","1051297","",""
"1060346-20","","佐賀中部病院前(2)","","33.26377","130.31906","1060346-20","","0","1060346","",""
"1060347-02","","修理田(2)","","33.26438","130.32227","1060347-02","","0","1060347","",""
"1060348-20","","中牟田(2)","","33.26637","130.32748","1060348-20","","0","1060348","",""
"1060349-20","","瓦町南(2)","","33.2695","130.33086","1060349-20","","0","1060349","",""
"1060350-20","","瓦町(2)","","33.27159","130.33316","1060350-20","","0","1060350","",""
"1060351-20","","堀立(2)","","33.27503","130.33688","1060351-20","","0","1060351","",""
"1060352-20","","堀立東(2)","","33.27743","130.33842","1060352-20","","0","1060352","",""
"1060353-00","","外野","","33.28102","130.33696","1060353-00","","0","1060353","",""
"1060354-00","","伊賀屋橋","","33.28399","130.33578","1060354-00","","0","1060354","",""
"1060355-20","","伊賀屋(2)","","33.28799","130.33485","1060355-20","","0","1060355","",""
"1060356-00","","中野吉","","33.29118","130.33501","1060356-00","","0","1060356","",""
"1060357-00","","和泉野橋","","33.29678","130.33365","1060357-00","","0","1060357","",""
"1060358-20","","折地(2)","","33.30191","130.33145","1060358-20","","0","1060358","",""
"1060359-20","","下和泉(2)","","33.30361","130.33031","1060359-20","","0","1060359","",""
"1060360-00","","上揚","","33.30836","130.32828","1060360-00","","0","1060360","",""
"1060361-20","","久保泉工業団地東(2)","","33.31077","130.32704","1060361-20","","0","1060361","",""
"1060362-20","","上和泉(2)","","33.31633","130.32631","1060362-20","","0","1060362","",""
"1060363-20","","久保泉小学校前(2)","","33.32163","130.32657","1060363-20","","0","1060363","",""
"1060364-20","","川久保(2)","","33.32463","130.32684","1060364-20","","0","1060364","",""
"1060365-20","","川久保交差点北(2)","","33.32628","130.32701","1060365-20","","0","1060365","",""
"1060366-00","","川久保中","","33.32813","130.3273","1060366-00","","0","1060366","",""
"1060367-00","","上分公民館前","","33.33195","130.32761","1060367-00","","0","1060367","",""
"1060368-00","","勝宿神社","","33.33578","130.32718","1060368-00","","0","1060368","",""
"1060369-00","","清友病院前","","33.34","130.32584","1060369-00","","0","1060369","",""
"1060365-10","","川久保交差点北(1)","","33.32624","130.32716","1060365-10","","0","1060365","",""
"1060364-10","","川久保(1)","","33.32495","130.32701","1060364-10","","0","1060364","",""
"1060363-10","","久保泉小学校前(1)","","33.3215","130.32668","1060363-10","","0","1060363","",""
"1060362-10","","上和泉(1)","","33.31714","130.32651","1060362-10","","0","1060362","",""
"1060361-10","","久保泉工業団地東(1)","","33.31018","130.32747","1060361-10","","0","1060361","",""
"1060359-10","","下和泉(1)","","33.30502","130.3298","1060359-10","","0","1060359","",""
"1060358-10","","折地(1)","","33.30179","130.3317","1060358-10","","0","1060358","",""
"1060355-10","","伊賀屋(1)","","33.28815","130.33488","1060355-10","","0","1060355","",""
"1060352-10","","堀立東(1)","","33.27746","130.33861","1060352-10","","0","1060352","",""
"1060351-10","","堀立(1)","","33.27502","130.33734","1060351-10","","0","1060351","",""
"1060350-10","","瓦町(1)","","33.27224","130.334","1060350-10","","0","1060350","",""
"1060349-10","","瓦町南(1)","","33.26955","130.33107","1060349-10","","0","1060349","",""
"1060348-10","","中牟田(1)","","33.26669","130.32797","1060348-10","","0","1060348","",""
"1060347-01","","修理田(1)","","33.26431","130.32245","1060347-01","","0","1060347","",""
"1060346-10","","佐賀中部病院前(1)","","33.26375","130.31918","1060346-10","","0","1060346","",""
"1024160-20","","大井樋(2)","","33.23916","130.29597","1024160-20","","0","1024160","",""
"1024161-20","","佐賀大学南(2)","","33.23955","130.28972","1024161-20","","0","1024161","",""
"1024162-20","","高伝寺前(2)","","33.23989","130.28452","1024162-20","","0","1024162","",""
"1024163-20","","平松交差点東(2)","","33.23997","130.28276","1024163-20","","0","1024163","",""
"1024164-20","","平松老人センター前(2)","","33.24153","130.27794","1024164-20","","0","1024164","",""
"1024165-20","","平林胃腸科前(2)","","33.24445","130.27637","1024165-20","","0","1024165","",""
"1018075-10","","地蔵前(1)","","33.246535","130.277491","1018075-10","","0","1018075","",""
"1018074-10","","長瀬町(1)","","33.248191","130.283375","1018074-10","","0","1018074","",""
"1024166-10","","護国神社前(1)","","33.25308","130.29344","1024166-10","","0","1024166","",""
"1024167-10","","成章中学校西(1)","","33.25603","130.29285","1024167-10","","0","1024167","",""
"1024167-20","","成章中学校西(2)","","33.25834","130.29314","1024167-20","","0","1024167","",""
"1024166-20","","護国神社前(2)","","33.25315","130.29355","1024166-20","","0","1024166","",""
"1003013-03","","辻の堂(３)","","33.251192","130.293963","1003013-03","","0","1003013","",""
"1018074-20","","長瀬町(2)","","33.247879","130.282472","1018074-20","","0","1018074","",""
"1018075-20","","地蔵前(2)","","33.246404","130.27735","1018075-20","","0","1018075","",""
"1024165-10","","平林胃腸科前(1)","","33.24385","130.27676","1024165-10","","0","1024165","",""
"1024164-10","","平松老人センター前(1)","","33.24168","130.27802","1024164-10","","0","1024164","",""
"1024163-10","","平松交差点東(1)","","33.24013","130.28218","1024163-10","","0","1024163","",""
"1024162-10","","高伝寺前(1)","","33.23997","130.28476","1024162-10","","0","1024162","",""
"1024161-10","","佐賀大学南(1)","","33.23956","130.29269","1024161-10","","0","1024161","",""
"1024160-10","","大井樋(1)","","33.23928","130.29607","1024160-10","","0","1024160","",""
"1005024-20","","夢咲公園(2)","","33.26845","130.30363","1005024-20","","0","1005024","",""
"1005025-20","","ほほえみ館前(2)","","33.26884","130.30504","1005025-20","","0","1005025","",""
"1005026-20","","アルカディアSAGA前(2)","","33.269448","130.30813","1005026-20","","0","1005026","",""
"1005027-20","","夢咲コスモスタウン(2)","","33.27144","130.30849","1005027-20","","0","1005027","",""
"1005028-20","","夢咲コスモスタウン北(2)","","33.2734","130.308","1005028-20","","0","1005028","",""
"1005031-00","","ゆめタウン佐賀","","33.27497","130.30783","1005031-00","","0","1005031","",""
"1005028-10","","夢咲コスモスタウン北(1)","","33.27335","130.30812","1005028-10","","0","1005028","",""
"1005027-10","","夢咲コスモスタウン(1)","","33.27088","130.30873","1005027-10","","0","1005027","",""
"1005026-10","","アルカディアSAGA前(1)","","33.26914","130.30754","1005026-10","","0","1005026","",""
"1005025-10","","ほほえみ館前(1)","","33.26872","130.30528","1005025-10","","0","1005025","",""
"1005024-10","","夢咲公園(1)","","33.26836","130.30351","1005024-10","","0","1005024","",""
"1005029-20","","佐賀清和学園前(2)","","33.27059","130.31064","1005029-20","","0","1005029","",""
"1005030-20","","ぽかぽか温泉前(2)","","33.27265","130.31079","1005030-20","","0","1005030","",""
"1005030-10","","ぽかぽか温泉前(1)","","33.27275","130.31064","1005030-10","","0","1005030","",""
"1005029-10","","佐賀清和学園前(1)","","33.27034","130.3105","1005029-10","","0","1005029","",""
"1064370-20","","東与賀イオン前(2)","","33.22169","130.3064","1064370-20","","0","1064370","",""
"1064371-20","","小々森北(2)","","33.19732","130.30363","1064371-20","","0","1064371","",""
"1001001-10","","佐賀空港(1)","","33.15378","130.30281","1001001-10","","0","1001001","",""
"1064371-10","","小々森北(1)","","33.19731","130.30348","1064371-10","","0","1064371","",""
"1064370-10","","東与賀イオン前(1)","","33.22163","130.3062","1064370-10","","0","1064370","",""
"1018076-20","","普門寺(2)","","33.245706","130.274086","1018076-20","","0","1018076","",""
"1018077-20","","高橋(2)","","33.245314","130.272213","1018077-20","","0","1018077","",""
"1018078-20","","扇町東(2)","","33.244579","130.268005","1018078-20","","0","1018078","",""
"1018079-00","","扇町","","33.243948","130.263659","1018079-00","","0","1018079","",""
"1018080-01","","嘉瀬元町(1)","","33.243206","130.258568","1018080-01","","0","1018080","",""
"1027184-20","","十五(2)","","33.23542","130.25787","1027184-20","","0","1027184","",""
"1027185-20","","十五南(2)","","33.22996","130.25766","1027185-20","","0","1027185","",""
"1027186-20","","嘉瀬新町(2)","","33.22515","130.25755","1027186-20","","0","1027186","",""
"1027187-20","","新町中央(2)","","33.22192","130.25749","1027187-20","","0","1027187","",""
"1011053-02","","本庄江橋(2)","","33.21973","130.25766","1011053-02","","0","1011053","",""
"1011053-01","","本庄江橋(1)","","33.21976","130.25752","1011053-01","","0","1011053","",""
"1027187-10","","新町中央(1)","","33.22211","130.25745","1027187-10","","0","1027187","",""
"1027186-10","","嘉瀬新町(1)","","33.22516","130.25746","1027186-10","","0","1027186","",""
"1027185-10","","十五南(1)","","33.23038","130.25763","1027185-10","","0","1027185","",""
"1027184-10","","十五(1)","","33.23582","130.25787","1027184-10","","0","1027184","",""
"1018080-02","","嘉瀬元町(2)","","33.24265","130.25797","1018080-02","","0","1018080","",""
"1018078-10","","扇町東(1)","","33.244415","130.266433","1018078-10","","0","1018078","",""
"1018077-10","","高橋(1)","","33.245147","130.270842","1018077-10","","0","1018077","",""
"1018076-10","","普門寺(1)","","33.245655","130.273292","1018076-10","","0","1018076","",""
"1018085-20","","元小路(2)","","33.24189","130.23767","1018085-20","","0","1018085","",""
"1018086-20","","中副(2)","","33.23952","130.23799","1018086-20","","0","1018086","",""
"1018087-20","","久保田支所前(2)","","33.23375","130.23943","1018087-20","","0","1018087","",""
"1018088-00","","横江","","33.22612","130.24089","1018088-00","","0","1018088","",""
"1018089-20","","久富西(2)","","33.22044","130.24173","1018089-20","","0","1018089","",""
"1011056-10","","くぼた特産物直売所前(1)","","33.22001","130.24435","1011056-10","","0","1011056","",""
"1018089-10","","久富西(1)","","33.22029","130.24165","1018089-10","","0","1018089","",""
"1018087-10","","久保田支所前(1)","","33.23378","130.23935","1018087-10","","0","1018087","",""
"1018086-10","","中副(1)","","33.23941","130.237836","1018086-10","","0","1018086","",""
"1018085-10","","元小路(1)","","33.24169","130.23752","1018085-10","","0","1018085","",""
"1018081-20","","森林公園東(2)","","33.242372","130.251781","1018081-20","","0","1018081","",""
"1018082-20","","森林公園前(2)","","33.242569","130.249887","1018082-20","","0","1018082","",""
"1018083-20","","嘉瀬橋(2)","","33.247333","130.240695","1018083-20","","0","1018083","",""
"1018084-03","","徳万(3)","","33.24794","130.23764","1018084-03","","0","1018084","",""
"1018084-04","","徳万(4)","","33.2478","130.2375","1018084-04","","0","1018084","",""
"1018083-10","","嘉瀬橋(1)","","33.247541","130.24056","1018083-10","","0","1018083","",""
"1018082-10","","森林公園前(1)","","33.242911","130.249199","1018082-10","","0","1018082","",""
"1018081-10","","森林公園東(1)","","33.242462","130.251835","1018081-10","","0","1018081","",""
"1018080-03","","嘉瀬元町(3)","","33.242856","130.256616","1018080-03","","0","1018080","",""
"1065372-00","","諸富ハートフル","","33.22186","130.35483","1065372-00","","0","1065372","",""
"1065375-20","","下早(2)","","33.19881","130.33508","1065375-20","","0","1065375","",""
"1065376-20","","有明漁協東与賀支所前(2)","","33.19952","130.29277","1065376-20","","0","1065376","",""
"1065377-20","","中飯盛(2)","","33.21627","130.28345","1065377-20","","0","1065377","",""
"1065377-10","","中飯盛(1)","","33.21634","130.28352","1065377-10","","0","1065377","",""
"1065376-10","","有明漁協東与賀支所前(1)","","33.19953","130.29295","1065376-10","","0","1065376","",""
"1065375-10","","下早(1)","","33.1989","130.33502","1065375-10","","0","1065375","",""
"1001002-05","","佐賀駅バスセンター(5)","","33.264317","130.299013","1001002-05","","0","1001002","",""
"4014152-05","","徳万(5)","","33.250302","130.235244","4014152-05","","0","4014152","",""
"4014153-20","","久保田宿(2)","","33.249171","130.228323","4014153-20","","0","4014153","",""
"4014154-00","","せとぐち内科前","","33.248699","130.225456","4014154-00","","0","4014154","",""
"4014155-20","","十丁畷手(2)","","33.247256","130.216766","4014155-20","","0","4014155","",""
"4014156-20","","芦刈町分(2)","","33.247135","130.211909","4014156-20","","0","4014156","",""
"4014157-20","","牛津本町(2)","","33.248131","130.208196","4014157-20","","0","4014157","",""
"4014158-20","","牛津駅前(2)","","33.249258","130.200509","4014158-20","","0","4014158","",""
"4014159-00","","牛津新町","","33.24768","130.195366","4014159-00","","0","4014159","",""
"4014160-20","","砥川町(2)","","33.24524","130.189472","4014160-20","","0","4014160","",""
"4014161-20","","砥川新宿(2)","","33.24093","130.184864","4014161-20","","0","4014161","",""
"4014162-20","","砥川小学校前(2)","","33.232547","130.181204","4014162-20","","0","4014162","",""
"4014163-20","","蒲原(2)","","33.226627","130.179181","4014163-20","","0","4014163","",""
"4014164-20","","佐留志(2)","","33.221387","130.170831","4014164-20","","0","4014164","",""
"4013125-20","","山口駅前(2)","","33.219636","130.160775","4013125-20","","0","4013125","",""
"4013129-20","","江北役場前(2)","","33.220019","130.157012","4013129-20","","0","4013129","",""
"4013134-20","","経済連センター前(2)","","33.219799","130.146043","4013134-20","","0","4013134","",""
"4013135-03","","杵島商校前(3)","","33.217166","130.136928","4013135-03","","0","4013135","",""
"4028310-20","","ＪＡさが地区中央支所前(2)","","33.214181","130.126624","4028310-20","","0","4028310","",""
"4028311-20","","大町学校前(2)","","33.212634","130.119935","4028311-20","","0","4028311","",""
"4028312-20","","大町役場前(2)","","33.212665","130.116278","4028312-20","","0","4028312","",""
"4028313-20","","大町病院前(2)","","33.212695","130.112848","4028313-20","","0","4028313","",""
"4028314-20","","土場口(2)","","33.21273","130.110898","4028314-20","","0","4028314","",""
"4028315-20","","大町駅前(2)","","33.212741","130.106426","4028315-20","","0","4028315","",""
"4028316-20","","大町幹部派出所前(2)","","33.213668","130.099106","4028316-20","","0","4028316","",""
"4028317-20","","赤坂(2)","","33.215123","130.092313","4028317-20","","0","4028317","",""
"4028318-20","","焼米橋(2)","","33.216015","130.086778","4028318-20","","0","4028318","",""
"4028319-20","","北方駅前(2)","","33.216772","130.082914","4028319-20","","0","4028319","",""
"4028320-20","","リムス前(2)","","33.217158","130.078502","4028320-20","","0","4028320","",""
"4028321-20","","北方ゴルフ場前(2)","","33.219919","130.074174","4028321-20","","0","4028321","",""
"4028322-20","","北方支所前(2)","","33.220269","130.067617","4028322-20","","0","4028322","",""
"4028323-20","","ホームセンターユートク(2)","","33.220051","130.062469","4028323-20","","0","4028323","",""
"3117746-20","","北方大崎(2)","","33.220334","130.055496","3117746-20","","0","3117746","",""
"3117745-20","","武雄北方インター口(2)","","33.214324","130.04914","3117745-20","","0","3117745","",""
"3117744-02","","鳴瀬分道(2)","","33.210454","130.045616","3117744-02","","0","3117744","",""
"3116705-20","","高橋駅前(2)","","33.207914","130.041369","3116705-20","","0","3116705","",""
"3116704-20","","メリーランド前(2)","","33.205972","130.038211","3116704-20","","0","3116704","",""
"3116703-20","","甘久(2)","","33.203562","130.034338","3116703-20","","0","3116703","",""
"3116702-02","","甘久西(2)","","33.201979","130.031689","3116702-02","","0","3116702","",""
"3116701-20","","武雄中学校前(2)","","33.199648","130.02787","3116701-20","","0","3116701","",""
"3116700-20","","武雄温泉駅前(2)","","33.196113","130.022145","3116700-20","","0","3116700","",""
"3116699-20","","温泉入口(2)","","33.193449","130.016521","3116699-20","","0","3116699","",""
"3116698-20","","竹下町(2)","","33.191835","130.013011","3116698-20","","0","3116698","",""
"4028326-20","","下西山(2)","","33.190347","130.012498","4028326-20","","0","4028326","",""
"4028327-00","","下西山車庫","","33.189196","130.01047","4028327-00","","0","4028327","",""
"4028326-10","","下西山(1)","","33.190118","130.012261","4028326-10","","0","4028326","",""
"3116698-10","","竹下町(1)","","33.191905","130.012962","3116698-10","","0","3116698","",""
"3116699-10","","温泉入口(1)","","33.193476","130.016252","3116699-10","","0","3116699","",""
"3116700-10","","武雄温泉駅前(1)","","33.196307","130.022233","3116700-10","","0","3116700","",""
"3116701-10","","武雄中学校前(1)","","33.199679","130.027763","3116701-10","","0","3116701","",""
"3116702-01","","甘久西(1)","","33.202139","130.031755","3116702-01","","0","3116702","",""
"3116703-10","","甘久(1)","","33.204065","130.034822","3116703-10","","0","3116703","",""
"3116704-10","","メリーランド前(1)","","33.205704","130.037519","3116704-10","","0","3116704","",""
"3116705-10","","高橋駅前(1)","","33.208148","130.04159","3116705-10","","0","3116705","",""
"3117744-01","","鳴瀬分道(1)","","33.210317","130.045106","3117744-01","","0","3117744","",""
"3117745-10","","武雄北方インター口(1)","","33.214161","130.0487","3117745-10","","0","3117745","",""
"3117746-10","","北方大崎(1)","","33.22044","130.055585","3117746-10","","0","3117746","",""
"4028323-10","","ホームセンターユートク(1)","","33.220203","130.062231","4028323-10","","0","4028323","",""
"4028322-10","","北方支所前(1)","","33.220445","130.068656","4028322-10","","0","4028322","",""
"4028321-10","","北方ゴルフ場前(1)","","33.22054","130.072596","4028321-10","","0","4028321","",""
"4028320-10","","リムス前(1)","","33.217513","130.078022","4028320-10","","0","4028320","",""
"4028319-10","","北方駅前(1)","","33.216892","130.083012","4028319-10","","0","4028319","",""
"4028318-10","","焼米橋(1)","","33.216128","130.086997","4028318-10","","0","4028318","",""
"4028317-10","","赤坂(1)","","33.215217","130.092364","4028317-10","","0","4028317","",""
"4028316-10","","大町幹部派出所前(1)","","33.21368","130.09947","4028316-10","","0","4028316","",""
"4028315-10","","大町駅前(1)","","33.212879","130.106046","4028315-10","","0","4028315","",""
"4028314-10","","土場口(1)","","33.212837","130.109388","4028314-10","","0","4028314","",""
"4028313-10","","大町病院前(1)","","33.212809","130.113131","4028313-10","","0","4028313","",""
"4028312-10","","大町役場前(1)","","33.212766","130.116559","4028312-10","","0","4028312","",""
"4028311-10","","大町学校前(1)","","33.212731","130.119829","4028311-10","","0","4028311","",""
"4028310-10","","ＪＡさが地区中央支所前(1)","","33.214268","130.126557","4028310-10","","0","4028310","",""
"4013135-02","","杵島商校前(2)","","33.217969","130.139126","4013135-02","","0","4013135","",""
"4013134-10","","経済連センター前(1)","","33.219939","130.145858","4013134-10","","0","4013134","",""
"4013129-10","","江北役場前(1)","","33.220113","130.157237","4013129-10","","0","4013129","",""
"4013125-10","","山口駅前(1)","","33.219759","130.160687","4013125-10","","0","4013125","",""
"4014164-10","","佐留志(1)","","33.221233","130.17046","4014164-10","","0","4014164","",""
"4014163-10","","蒲原(1)","","33.226833","130.178981","4014163-10","","0","4014163","",""
"4014162-10","","砥川小学校前(1)","","33.23273","130.180952","4014162-10","","0","4014162","",""
"4014161-10","","砥川新宿(1)","","33.240956","130.184534","4014161-10","","0","4014161","",""
"4014160-10","","砥川町(1)","","33.245569","130.189491","4014160-10","","0","4014160","",""
"4014158-10","","牛津駅前(1)","","33.249795","130.201737","4014158-10","","0","4014158","",""
"4014157-10","","牛津本町(1)","","33.247808","130.208938","4014157-10","","0","4014157","",""
"4014156-10","","芦刈町分(1)","","33.247238","130.21139","4014156-10","","0","4014156","",""
"4014155-10","","十丁畷手(1)","","33.247382","130.216573","4014155-10","","0","4014155","",""
"4014153-10","","久保田宿(1)","","33.249038","130.226952","4014153-10","","0","4014153","",""
"4014152-06","","徳万(6)","","33.250395","130.235052","4014152-06","","0","4014152","",""
"1001002-09","","佐賀駅バスセンター(9)","","33.264663","130.299455","1001002-09","","0","1001002","",""
"4015165-20","","江北学校入口(2)","","33.214375","130.154735","4015165-20","","0","4015165","",""
"4015166-20","","千反松(2)","","33.206678","130.150201","4015166-20","","0","4015166","",""
"4015167-20","","八丁(2)","","33.200663","130.146245","4015167-20","","0","4015167","",""
"4015168-20","","下小田(2)","","33.197721","130.142883","4015168-20","","0","4015168","",""
"4015169-20","","六角橋(2)","","33.19427","130.140915","4015169-20","","0","4015169","",""
"4015170-20","","白石(2)","","33.187163","130.141143","4015170-20","","0","4015170","",""
"4015171-20","","白石中町(2)","","33.183035","130.14035","4015171-20","","0","4015171","",""
"4015172-20","","廿治町(2)","","33.179196","130.139408","4015172-20","","0","4015172","",""
"4015173-20","","白石中学校前(2)","","33.174013","130.137602","4015173-20","","0","4015173","",""
"4015174-20","","干拓道(2)","","33.169765","130.135755","4015174-20","","0","4015174","",""
"4015175-20","","大井(2)","","33.166993","130.134564","4015175-20","","0","4015175","",""
"4015176-20","","柳橋(2)","","33.161559","130.131643","4015176-20","","0","4015176","",""
"4015177-20","","廻里津(2)","","33.154629","130.125453","4015177-20","","0","4015177","",""
"4015178-20","","廻里江橋(2)","","33.151063","130.12381","4015178-20","","0","4015178","",""
"4015179-20","","竜王駅前(2)","","33.146768","130.122166","4015179-20","","0","4015179","",""
"4015180-20","","竜王崎(2)","","33.136408","130.123234","4015180-20","","0","4015180","",""
"4015181-20","","深浦(2)","","33.133609","130.112265","4015181-20","","0","4015181","",""
"4015182-20","","百貫(2)","","33.133031","130.109867","4015182-20","","0","4015182","",""
"4015183-20","","井手(2)","","33.126147","130.102717","4015183-20","","0","4015183","",""
"4015184-20","","新篭入口(2)","","33.124268","130.101232","4015184-20","","0","4015184","",""
"4015185-20","","乙丸東(2)","","33.119602","130.098528","4015185-20","","0","4015185","",""
"4015186-20","","鹿島本町東(2)","","33.116705","130.097427","4015186-20","","0","4015186","",""
"4003001-03","","鹿島バスセンター(3)","","33.11405","130.09686","4003001-03","","0","4003001","",""
"4003002-20","","中牟田(2)","","33.110897","130.097319","4003002-20","","0","4003002","",""
"4003003-20","","中川(2)","","33.107768","130.097862","4003003-20","","0","4003003","",""
"4003004-20","","小舟津(2)","","33.104409","130.102037","4003004-20","","0","4003004","",""
"4003005-20","","鹿島農協入口(2)","","33.102596","130.105833","4003005-20","","0","4003005","",""
"4003006-20","","しめご橋(2)","","33.10085","130.107965","4003006-20","","0","4003006","",""
"4003007-20","","石木津(2)","","33.098251","130.10861","4003007-20","","0","4003007","",""
"4003008-20","","浜三ツ角西(2)","","33.095761","130.111718","4003008-20","","0","4003008","",""
"4003009-20","","浜三ツ角(2)","","33.094983","130.112454","4003009-20","","0","4003009","",""
"4003010-20","","工場団地入口(2)","","33.093506","130.111313","4003010-20","","0","4003010","",""
"4003011-20","","大村方(2)","","33.090459","130.110252","4003011-20","","0","4003011","",""
"4003012-20","","古枝小学校前(2)","","33.082519","130.108851","4003012-20","","0","4003012","",""
"4003013-00","","祐徳神社前","","33.078148","130.109037","4003013-00","","0","4003013","",""
"4003012-10","","古枝小学校前(1)","","33.082388","130.108727","4003012-10","","0","4003012","",""
"4003011-10","","大村方(1)","","33.090203","130.110063","4003011-10","","0","4003011","",""
"4003010-10","","工場団地入口(1)","","33.093133","130.111031","4003010-10","","0","4003010","",""
"4003009-10","","浜三ツ角(1)","","33.095204","130.112525","4003009-10","","0","4003009","",""
"4003008-10","","浜三ツ角西(1)","","33.095645","130.111764","4003008-10","","0","4003008","",""
"4003007-10","","石木津(1)","","33.097351","130.108669","4003007-10","","0","4003007","",""
"4003006-10","","しめご橋(1)","","33.100016","130.108196","4003006-10","","0","4003006","",""
"4003005-10","","鹿島農協入口(1)","","33.102496","130.10584","4003005-10","","0","4003005","",""
"4003004-10","","小舟津(1)","","33.104321","130.101957","4003004-10","","0","4003004","",""
"4003003-10","","中川(1)","","33.107333","130.097772","4003003-10","","0","4003003","",""
"4003002-10","","中牟田(1)","","33.110243","130.097309","4003002-10","","0","4003002","",""
"4003001-01","","鹿島バスセンター(1)","","33.114115","130.097092","4003001-01","","0","4003001","",""
"4015186-10","","鹿島本町東(1)","","33.116663","130.097264","4015186-10","","0","4015186","",""
"4015185-10","","乙丸東(1)","","33.119714","130.098429","4015185-10","","0","4015185","",""
"4015184-10","","新篭入口(1)","","33.12414","130.100936","4015184-10","","0","4015184","",""
"4015183-10","","井手(1)","","33.126453","130.102852","4015183-10","","0","4015183","",""
"4015182-10","","百貫(1)","","33.132994","130.109192","4015182-10","","0","4015182","",""
"4015181-10","","深浦(1)","","33.1338","130.11322","4015181-10","","0","4015181","",""
"4015180-10","","竜王崎(1)","","33.137173","130.122818","4015180-10","","0","4015180","",""
"4015179-10","","竜王駅前(1)","","33.147088","130.122163","4015179-10","","0","4015179","",""
"4015178-10","","廻里江橋(1)","","33.150895","130.123634","4015178-10","","0","4015178","",""
"4015177-10","","廻里津(1)","","33.154692","130.125278","4015177-10","","0","4015177","",""
"4015176-10","","柳橋(1)","","33.162294","130.13185","4015176-10","","0","4015176","",""
"4015175-10","","大井(1)","","33.167052","130.134405","4015175-10","","0","4015175","",""
"4015174-10","","干拓道(1)","","33.169123","130.135351","4015174-10","","0","4015174","",""
"4015173-10","","白石中学校前(1)","","33.174276","130.137614","4015173-10","","0","4015173","",""
"4015172-10","","廿治町(1)","","33.179268","130.13926","4015172-10","","0","4015172","",""
"4015171-10","","白石中町(1)","","33.182882","130.14014","4015171-10","","0","4015171","",""
"4015170-10","","白石(1)","","33.187064","130.140983","4015170-10","","0","4015170","",""
"4015169-10","","六角橋(1)","","33.193353","130.140643","4015169-10","","0","4015169","",""
"4015168-10","","下小田(1)","","33.198887","130.144283","4015168-10","","0","4015168","",""
"4015167-10","","八丁(1)","","33.201316","130.146502","4015167-10","","0","4015167","",""
"4015166-10","","千反松(1)","","33.207608","130.150663","4015166-10","","0","4015166","",""
"4015165-10","","江北学校入口(1)","","33.214619","130.154752","4015165-10","","0","4015165","",""
"4009080-20","","久保山(2)","","33.088617","130.105454","4009080-20","","0","4009080","",""
"4009081-20","","誕生院前(2)","","33.096618","130.10281","4009081-20","","0","4009081","",""
"4009082-20","","執行分(2)","","33.10152","130.101972","4009082-20","","0","4009082","",""
"4009083-20","","泉通り(2)","","33.104353","130.100946","4009083-20","","0","4009083","",""
"4009084-10","","鹿島本町西(1)","","33.116425","130.095177","4009084-10","","0","4009084","",""
"4009085-20","","乙丸西(2)","","33.119914","130.096891","4009085-20","","0","4009085","",""
"4009086-20","","貝の橋(2)","","33.122362","130.091544","4009086-20","","0","4009086","",""
"4009087-20","","五の宮(2)","","33.122049","130.085579","4009087-20","","0","4009087","",""
"4009088-20","","大牟田(2)","","33.123342","130.079228","4009088-20","","0","4009088","",""
"4009089-20","","真崎(2)","","33.124358","130.071949","4009089-20","","0","4009089","",""
"4009090-20","","五町田(2)","","33.125609","130.062831","4009090-20","","0","4009090","",""
"4009091-03","","嬉野市役所塩田庁舎前(3)","","33.127786","130.05867","4009091-03","","0","4009091","",""
"4009092-20","","下野辺田(2)","","33.12808","130.051006","4009092-20","","0","4009092","",""
"4009093-20","","塩田小学校前(2)","","33.126329","130.043501","4009093-20","","0","4009093","",""
"4009094-20","","宮の元(2)","","33.126853","130.039614","4009094-20","","0","4009094","",""
"4009095-20","","美野入口(2)","","33.130219","130.032539","4009095-20","","0","4009095","",""
"4009096-20","","塩吹(2)","","33.132877","130.030439","4009096-20","","0","4009096","",""
"4009097-20","","橋山入口(2)","","33.136374","130.02454","4009097-20","","0","4009097","",""
"4009098-20","","万才(2)","","33.135579","130.015931","4009098-20","","0","4009098","",""
"4009099-20","","蛍橋(2)","","33.12979","130.00683","4009099-20","","0","4009099","",""
"4009100-20","","五代(2)","","33.128058","130.004592","4009100-20","","0","4009100","",""
"4009101-20","","式浪入口(2)","","33.124634","130.002945","4009101-20","","0","4009101","",""
"4007053-20","","一位原(2)","","33.117893","130.001551","4007053-20","","0","4007053","",""
"4005042-20","","今寺(2)","","33.109554","129.99978","4005042-20","","0","4005042","",""
"4005041-20","","嬉野高校前(2)","","33.107529","129.997686","4005041-20","","0","4005041","",""
"4005040-03","","築城(3)","","33.103823","129.993868","4005040-03","","0","4005040","",""
"4005039-20","","温泉四区(2)","","33.102166","129.99218","4005039-20","","0","4005039","",""
"4006052-00","","昭和通り","","33.100807","129.989842","4006052-00","","0","4006052","",""
"4005038-20","","公会堂前(2)","","33.09988","129.987788","4005038-20","","0","4005038","",""
"4005035-20","","体育館前(2)","","33.09883","129.985393","4005035-20","","0","4005035","",""
"4005034-20","","嬉野医療センター前(2)","","33.098581","129.980261","4005034-20","","0","4005034","",""
"4005033-00","","嬉野温泉バスセンター","","33.096185","129.98176","4005033-00","","0","4005033","",""
"4005032-00","","湯の田","","33.095585","129.97879","4005032-00","","0","4005032","",""
"4005034-10","","嬉野医療センター前(1)","","33.098004","129.980253","4005034-10","","0","4005034","",""
"4005035-10","","体育館前(1)","","33.098554","129.984466","4005035-10","","0","4005035","",""
"4005038-10","","公会堂前(1)","","33.100384","129.988566","4005038-10","","0","4005038","",""
"4005039-10","","温泉四区(1)","","33.102388","129.992206","4005039-10","","0","4005039","",""
"4005040-01","","築城(1)","","33.105062","129.994935","4005040-01","","0","4005040","",""
"4005041-10","","嬉野高校前(1)","","33.107633","129.9976","4005041-10","","0","4005041","",""
"4005042-10","","今寺(1)","","33.109714","129.999807","4005042-10","","0","4005042","",""
"4007053-10","","一位原(1)","","33.117879","130.001397","4007053-10","","0","4007053","",""
"4009101-10","","式浪入口(1)","","33.124773","130.002889","4009101-10","","0","4009101","",""
"4009100-10","","五代(1)","","33.128248","130.00481","4009100-10","","0","4009100","",""
"4009099-10","","蛍橋(1)","","33.130044","130.006846","4009099-10","","0","4009099","",""
"4009098-10","","万才(1)","","33.135206","130.014994","4009098-10","","0","4009098","",""
"4009097-10","","橋山入口(1)","","33.136543","130.024722","4009097-10","","0","4009097","",""
"4009096-10","","塩吹(1)","","33.13221","130.03079","4009096-10","","0","4009096","",""
"4009095-10","","美野入口(1)","","33.130356","130.032602","4009095-10","","0","4009095","",""
"4009094-10","","宮の元(1)","","33.126944","130.040154","4009094-10","","0","4009094","",""
"4009093-10","","塩田小学校前(1)","","33.126463","130.043627","4009093-10","","0","4009093","",""
"4009092-10","","下野辺田(1)","","33.12825","130.050937","4009092-10","","0","4009092","",""
"4009091-02","","嬉野市役所塩田庁舎前(2)","","33.126897","130.059729","4009091-02","","0","4009091","",""
"4009090-10","","五町田(1)","","33.12575","130.062744","4009090-10","","0","4009090","",""
"4009089-10","","真崎(1)","","33.124428","130.072307","4009089-10","","0","4009089","",""
"4009088-10","","大牟田(1)","","33.123441","130.079268","4009088-10","","0","4009088","",""
"4009087-10","","五の宮(1)","","33.122152","130.08543","4009087-10","","0","4009087","",""
"4009086-10","","貝の橋(1)","","33.12246","130.091606","4009086-10","","0","4009086","",""
"4009085-10","","乙丸西(1)","","33.11935","130.096731","4009085-10","","0","4009085","",""
"4009084-20","","鹿島本町西(2)","","33.116397","130.095293","4009084-20","","0","4009084","",""
"4009083-10","","泉通り(1)","","33.104504","130.101007","4009083-10","","0","4009083","",""
"4009082-10","","執行分(1)","","33.101666","130.102059","4009082-10","","0","4009082","",""
"4009081-10","","誕生院前(1)","","33.0961","130.103015","4009081-10","","0","4009081","",""
"4009080-10","","久保山(1)","","33.088588","130.105614","4009080-10","","0","4009080","",""
"4003001-02","","鹿島バスセンター(2)","","33.114029","130.096888","4003001-02","","0","4003001","",""
"4011102-00","","鹿島新町","","33.111499","130.095208","4011102-00","","0","4011102","",""
"4011103-03","","公園入口(3)","","33.109744","130.094181","4011103-03","","0","4011103","",""
"4011104-20","","西牟田(2)","","33.110049","130.088485","4011104-20","","0","4011104","",""
"4011105-00","","鹿島総合庁舎前","","33.10998","130.087047","4011105-00","","0","4011105","",""
"4011106-20","","黒川(2)","","33.105481","130.084257","4011106-20","","0","4011106","",""
"4011107-20","","伏原入口(2)","","33.100207","130.080016","4011107-20","","0","4011107","",""
"4011108-20","","浅浦入口(2)","","33.09766","130.076617","4011108-20","","0","4011108","",""
"4011110-20","","平山(2)","","33.099246","130.070165","4011110-20","","0","4011110","",""
"4011111-20","","塩田分岐(2)","","33.10019","130.064757","4011111-20","","0","4011111","",""
"4011112-00","","八天社前","","33.09959","130.057314","4011112-00","","0","4011112","",""
"4011113-20","","北山(2)","","33.098645","130.052244","4011113-20","","0","4011113","",""
"4011114-00","","鳥越","","33.099861","130.043444","4011114-00","","0","4011114","",""
"4011115-20","","東吉田下(2)","","33.092207","130.027625","4011115-20","","0","4011115","",""
"4011116-00","","東吉田","","33.089314","130.026054","4011116-00","","0","4011116","",""
"4011117-00","","納戸料","","33.087106","130.020418","4011117-00","","0","4011117","",""
"4011118-20","","羽口坂(2)","","33.082218","130.01928","4011118-20","","0","4011118","",""
"4011119-00","","上皿屋","","33.083039","130.016138","4011119-00","","0","4011119","",""
"4011120-00","","下皿屋","","33.084872","130.015828","4011120-00","","0","4011120","",""
"4011121-20","","西吉田入口(2)","","33.087169","130.01459","4011121-20","","0","4011121","",""
"4011122-00","","西吉田下山","","33.089511","130.009369","4011122-00","","0","4011122","",""
"4011123-00","","兎鹿野入口","","33.095578","130.003126","4011123-00","","0","4011123","",""
"4011124-00","","中山","","33.098143","130.001567","4011124-00","","0","4011124","",""
"4006051-20","","井手川内(2)","","33.101679","129.998675","4006051-20","","0","4006051","",""
"4005040-02","","築城(2)","","33.10432","129.994999","4005040-02","","0","4005040","",""
"4006051-10","","井手川内(1)","","33.101159","129.999518","4006051-10","","0","4006051","",""
"4011121-10","","西吉田入口(1)","","33.087474","130.014326","4011121-10","","0","4011121","",""
"4011118-10","","羽口坂(1)","","33.082008","130.019053","4011118-10","","0","4011118","",""
"4011115-10","","東吉田下(1)","","33.092273","130.027444","4011115-10","","0","4011115","",""
"4011113-10","","北山(1)","","33.09872","130.052109","4011113-10","","0","4011113","",""
"4011111-10","","塩田分岐(1)","","33.100391","130.065224","4011111-10","","0","4011111","",""
"4011110-10","","平山(1)","","33.099639","130.069617","4011110-10","","0","4011110","",""
"4011108-10","","浅浦入口(1)","","33.097783","130.076458","4011108-10","","0","4011108","",""
"4011107-10","","伏原入口(1)","","33.100669","130.080362","4011107-10","","0","4011107","",""
"4011106-10","","黒川(1)","","33.105677","130.084206","4011106-10","","0","4011106","",""
"4011104-10","","西牟田(1)","","33.110131","130.088608","4011104-10","","0","4011104","",""
"4011109-20","","浅浦(2)","","33.093193","130.06943","4011109-20","","0","4011109","",""
"4011109-10","","浅浦(1)","","33.093025","130.069412","4011109-10","","0","4011109","",""
"4009091-01","","嬉野市役所塩田庁舎前(1)","","33.128543","130.059205","4009091-01","","0","4009091","",""
"4030328-20","","塩田下町(2)","","33.131895","130.061274","4030328-20","","0","4030328","",""
"4030329-20","","牛間田新道(2)","","33.137248","130.063578","4030329-20","","0","4030329","",""
"4030330-20","","下久間(2)","","33.140472","130.063598","4030330-20","","0","4030330","",""
"4030331-20","","志田原(2)","","33.147408","130.062949","4030331-20","","0","4030331","",""
"4030332-20","","冬野入口(2)","","33.150796","130.064205","4030332-20","","0","4030332","",""
"4030333-20","","西山(2)","","33.157088","130.062881","4030333-20","","0","4030333","",""
"4030334-20","","北志田(2)","","33.162011","130.060988","4030334-20","","0","4030334","",""
"4030335-20","","楢崎(2)","","33.166209","130.057675","4030335-20","","0","4030335","",""
"4030336-10","","上野(1)","","33.168775","130.050783","4030336-10","","0","4030336","",""
"4030337-20","","郷の木(2)","","33.174306","130.048277","4030337-20","","0","4030337","",""
"4030338-20","","潮見(2)","","33.177713","130.045863","4030338-20","","0","4030338","",""
"4030339-20","","大谷(2)","","33.181647","130.042199","4030339-20","","0","4030339","",""
"4030340-20","","永島(2)","","33.184892","130.038203","4030340-20","","0","4030340","",""
"4030341-20","","和田団地(2)","","33.189039","130.036198","4030341-20","","0","4030341","",""
"4030342-20","","花島(2)","","33.190939","130.035078","4030342-20","","0","4030342","",""
"4030343-20","","青陵中学校前(2)","","33.192932","130.031039","4030343-20","","0","4030343","",""
"4031346-10","","武雄総合庁舎前(1)","","33.195477","130.028657","4031346-10","","0","4031346","",""
"4032367-10","","武雄市役所前(1)","","33.19451","130.02118","4032367-10","","0","4032367","",""
"4032366-20","","マルキョウ前(2)","","33.192931","130.023253","4032366-20","","0","4032366","",""
"4026299-10","","図書館前(1)","","33.189424","130.024236","4026299-10","","0","4026299","",""
"4032365-20","","武雄高校前(2)","","33.189629","130.020573","4032365-20","","0","4032365","",""
"4026300-20","","武雄中央公園前(2)","","33.193006","130.018164","4026300-20","","0","4026300","",""
"4026300-10","","武雄中央公園前(1)","","33.193215","130.018113","4026300-10","","0","4026300","",""
"4032365-00","","武雄高校前","","33.189231","130.021092","4032365-00","","0","4032365","",""
"4026299-20","","図書館前(2)","","33.1896","130.024096","4026299-20","","0","4026299","",""
"4032366-00","","マルキョウ前","","33.192891","130.023136","4032366-00","","0","4032366","",""
"4032367-20","","武雄市役所前(2)","","33.194319","130.021234","4032367-20","","0","4032367","",""
"4031346-20","","武雄総合庁舎前(2)","","33.195459","130.028918","4031346-20","","0","4031346","",""
"4030343-10","","青陵中学校前(1)","","33.19259","130.031513","4030343-10","","0","4030343","",""
"4030342-10","","花島(1)","","33.19063","130.0355","4030342-10","","0","4030342","",""
"4030341-10","","和田団地(1)","","33.18884","130.03636","4030341-10","","0","4030341","",""
"4030340-10","","永島(1)","","33.184815","130.038575","4030340-10","","0","4030340","",""
"4030339-10","","大谷(1)","","33.181833","130.042147","4030339-10","","0","4030339","",""
"4030338-10","","潮見(1)","","33.177726","130.045974","4030338-10","","0","4030338","",""
"4030337-10","","郷の木(1)","","33.174466","130.048424","4030337-10","","0","4030337","",""
"4030336-20","","上野(2)","","33.168944","130.050795","4030336-20","","0","4030336","",""
"4030335-10","","楢崎(1)","","33.166354","130.057799","4030335-10","","0","4030335","",""
"4030334-10","","北志田(1)","","33.161717","130.06135","4030334-10","","0","4030334","",""
"4030333-10","","西山(1)","","33.156988","130.062997","4030333-10","","0","4030333","",""
"4030332-10","","冬野入口(1)","","33.150758","130.064298","4030332-10","","0","4030332","",""
"4030331-10","","志田原(1)","","33.148153","130.063147","4030331-10","","0","4030331","",""
"4030330-10","","下久間(1)","","33.139926","130.063767","4030330-10","","0","4030330","",""
"4030329-10","","牛間田新道(1)","","33.135884","130.063181","4030329-10","","0","4030329","",""
"4030328-10","","塩田下町(1)","","33.132145","130.061484","4030328-10","","0","4030328","",""
"0000001-01","","宇宙科学館","","33.177826","130.035676","0000001-01","","0","0000001","",""
"4003001-04","","鹿島バスセンター(4)","","33.114082","130.096822","4003001-04","","0","4003001","",""
"4011103-01","","公園入口(1)","","33.109544","130.0955","4011103-01","","0","4011103","",""
"4020191-20","","浜駅前(2)","","33.093947","130.116296","4020191-20","","0","4020191","",""
"4020192-20","","浜大橋(2)","","33.092294","130.118569","4020192-20","","0","4020192","",""
"4020193-20","","浜崎(2)","","33.089745","130.121988","4020193-20","","0","4020193","",""
"4020194-20","","新方(2)","","33.088241","130.127907","4020194-20","","0","4020194","",""
"4020195-20","","西葉(2)","","33.087479","130.133128","4020195-20","","0","4020195","",""
"4020196-20","","琵琶岬橋(2)","","33.084205","130.136515","4020196-20","","0","4020196","",""
"4020197-20","","塩屋橋(2)","","33.079807","130.139856","4020197-20","","0","4020197","",""
"4020198-10","","宮道(1)","","33.078456","130.142908","4020198-10","","0","4020198","",""
"4020199-20","","海洋センター前(2)","","33.075664","130.145215","4020199-20","","0","4020199","",""
"4020200-20","","音成(2)","","33.072122","130.146193","4020200-20","","0","4020200","",""
"4020201-20","","七浦郵便局前(2)","","33.069261","130.14923","4020201-20","","0","4020201","",""
"4020202-20","","七浦小学校入口(2)","","33.067049","130.150746","4020202-20","","0","4020202","",""
"4020203-20","","矢の浦(2)","","33.063612","130.154588","4020203-20","","0","4020203","",""
"4020204-20","","飯田(2)","","33.055757","130.16037","4020204-20","","0","4020204","",""
"4020205-20","","江福(2)","","33.052734","130.165756","4020205-20","","0","4020205","",""
"4020206-20","","道の駅太良前(2)","","33.046852","130.168641","4020206-20","","0","4020206","",""
"4020207-20","","伊福(2)","","33.043189","130.169883","4020207-20","","0","4020207","",""
"4020208-20","","江岡(2)","","33.038418","130.171356","4020208-20","","0","4020208","",""
"4020209-00","","太良高校正門前","","33.034696","130.170138","4020209-00","","0","4020209","",""
"4020210-20","","多良栄町(2)","","33.031826","130.175388","4020210-20","","0","4020210","",""
"4020211-20","","球場前(2)","","33.028373","130.17753","4020211-20","","0","4020211","",""
"4020212-20","","太良病院前(2)","","33.026013","130.178307","4020212-20","","0","4020212","",""
"4020213-20","","太良老人センター(2)","","33.024233","130.178749","4020213-20","","0","4020213","",""
"4020214-20","","太良役場前(2)","","33.019345","130.178673","4020214-20","","0","4020214","",""
"4020215-20","","糸岐本町(2)","","33.015658","130.180775","4020215-20","","0","4020215","",""
"4020216-00","","陣内","","33.01371","130.182151","4020216-00","","0","4020216","",""
"4020217-00","","亀崎","","33.011256","130.185991","4020217-00","","0","4020217","",""
"4020218-00","","破瀬の浦","","32.999428","130.187235","4020218-00","","0","4020218","",""
"4020219-20","","休石(2)","","32.991445","130.19108","4020219-20","","0","4020219","",""
"4020220-20","","里(2)","","32.989031","130.193093","4020220-20","","0","4020220","",""
"4020221-20","","野上(2)","","32.989016","130.204313","4020221-20","","0","4020221","",""
"4020222-20","","広江(2)","","32.981279","130.207416","4020222-20","","0","4020222","",""
"4020223-20","","亀の浦入口(2)","","32.978899","130.208652","4020223-20","","0","4020223","",""
"4020224-20","","大浦駅前(2)","","32.974988","130.206762","4020224-20","","0","4020224","",""
"4020225-01","","風配登山口(1)","","32.972648","130.205172","4020225-01","","0","4020225","",""
"4020226-02","","竹崎入口(2)","","32.968969","130.203712","4020226-02","","0","4020226","",""
"4020227-20","","津の浦(2)","","32.966055","130.201836","4020227-20","","0","4020227","",""
"4020228-20","","牟田(2)","","32.959804","130.205958","4020228-20","","0","4020228","",""
"4020229-00","","県界","","32.958972","130.202581","4020229-00","","0","4020229","",""
"4020228-10","","牟田(1)","","32.960246","130.206048","4020228-10","","0","4020228","",""
"4020227-10","","津の浦(1)","","32.966492","130.20164","4020227-10","","0","4020227","",""
"4020226-01","","竹崎入口(1)","","32.969204","130.203703","4020226-01","","0","4020226","",""
"4020225-02","","風配登山口(2)","","32.972562","130.204999","4020225-02","","0","4020225","",""
"4020224-10","","大浦駅前(1)","","32.97558","130.206947","4020224-10","","0","4020224","",""
"4020223-10","","亀の浦入口(1)","","32.979001","130.208581","4020223-10","","0","4020223","",""
"4020222-10","","広江(1)","","32.98118","130.207343","4020222-10","","0","4020222","",""
"4020221-10","","野上(1)","","32.988788","130.204339","4020221-10","","0","4020221","",""
"4020220-10","","里(1)","","32.988721","130.193617","4020220-10","","0","4020220","",""
"4020219-10","","休石(1)","","32.991007","130.190856","4020219-10","","0","4020219","",""
"4020215-10","","糸岐本町(1)","","33.015607","130.180677","4020215-10","","0","4020215","",""
"4020214-10","","太良役場前(1)","","33.019149","130.17853","4020214-10","","0","4020214","",""
"4020213-10","","太良老人センター(1)","","33.02428","130.178584","4020213-10","","0","4020213","",""
"4020212-10","","太良病院前(1)","","33.025992","130.178209","4020212-10","","0","4020212","",""
"4020211-10","","球場前(1)","","33.0284","130.177375","4020211-10","","0","4020211","",""
"4020210-10","","多良栄町(1)","","33.03182","130.175237","4020210-10","","0","4020210","",""
"4020208-10","","江岡(1)","","33.038425","130.171121","4020208-10","","0","4020208","",""
"4020207-10","","伊福(1)","","33.043024","130.169819","4020207-10","","0","4020207","",""
"4020206-10","","道の駅太良前(1)","","33.048177","130.168797","4020206-10","","0","4020206","",""
"4020205-10","","江福(1)","","33.05261","130.165704","4020205-10","","0","4020205","",""
"4020204-10","","飯田(1)","","33.055738","130.160269","4020204-10","","0","4020204","",""
"4020203-10","","矢の浦(1)","","33.063474","130.154368","4020203-10","","0","4020203","",""
"4020202-10","","七浦小学校入口(1)","","33.067253","130.14981","4020202-10","","0","4020202","",""
"4020201-10","","七浦郵便局前(1)","","33.069785","130.148849","4020201-10","","0","4020201","",""
"4020200-10","","音成(1)","","33.07202","130.14598","4020200-10","","0","4020200","",""
"4020199-10","","海洋センター前(1)","","33.076107","130.144922","4020199-10","","0","4020199","",""
"4020198-20","","宮道(2)","","33.078426","130.142814","4020198-20","","0","4020198","",""
"4020197-10","","塩屋橋(1)","","33.08056","130.138504","4020197-10","","0","4020197","",""
"4020196-10","","琵琶岬橋(1)","","33.084482","130.135717","4020196-10","","0","4020196","",""
"4020195-10","","西葉(1)","","33.087461","130.132781","4020195-10","","0","4020195","",""
"4020194-10","","新方(1)","","33.08798","130.128322","4020194-10","","0","4020194","",""
"4020193-10","","浜崎(1)","","33.089763","130.121493","4020193-10","","0","4020193","",""
"4020192-10","","浜大橋(1)","","33.0919","130.118603","4020192-10","","0","4020192","",""
"4020191-10","","浜駅前(1)","","33.094381","130.11502","4020191-10","","0","4020191","",""
"4011103-02","","公園入口(2)","","33.109589","130.094915","4011103-02","","0","4011103","",""
"4022256-20","","鹿島市役所・エイブル前(2)","","33.104173","130.099261","4022256-20","","0","4022256","",""
"4022257-20","","末光(2)","","33.098649","130.101077","4022257-20","","0","4022257","",""
"4020399-10","","ララベル前(1)","","33.098298","130.101617","4020399-10","","0","4020399","",""
"4033398-20","","ドラモリ・コメリ前(2)","","33.099229","130.105966","4033398-20","","0","4033398","",""
"4033398-10","","ドラモリ・コメリ前(1)","","33.099","130.105382","4033398-10","","0","4033398","",""
"4020399-20","","ララベル前(2)","","33.098221","130.101886","4020399-20","","0","4020399","",""
"4022257-10","","末光(1)","","33.099004","130.100879","4022257-10","","0","4022257","",""
"4022256-10","","鹿島市役所・エイブル前(1)","","33.104584","130.098946","4022256-10","","0","4022256","",""
"3094619-20","","東佐賀(2)","","33.253737","130.313599","3094619-20","","0","3094619","",""
"4050800-00","","モラージュ佐賀","","33.252264","130.319743","4050800-00","","0","4050800","",""
"3094619-10","","東佐賀(1)","","33.25345","130.313428","3094619-10","","0","3094619","",""
"4026298-20","","御船ヶ丘小学校前(2)","","33.187259","130.026853","4026298-20","","0","4026298","",""
"4026301-20","","武雄警察署前(2)","","33.189909","130.009982","4026301-20","","0","4026301","",""
"4026302-20","","若葉台入口(2)","","33.188242","130.004863","4026302-20","","0","4026302","",""
"4026303-20","","上西山(2)","","33.186657","130.001048","4026303-20","","0","4026303","",""
"4026304-20","","下山入口(2)","","33.18408","129.994847","4026304-20","","0","4026304","",""
"4026305-20","","踊瀬(2)","","33.190744","129.983261","4026305-20","","0","4026305","",""
"4026306-20","","永尾駅前(2)","","33.193703","129.980345","4026306-20","","0","4026306","",""
"4026307-20","","小六川(2)","","33.196826","129.9687","4026307-20","","0","4026307","",""
"4007075-03","","岩井手(3)","","33.196138","129.962151","4007075-03","","0","4007075","",""
"4007076-10","","茅場(1)","","33.195953","129.960444","4007076-10","","0","4007076","",""
"4007077-00","","草場前","","33.195304","129.954615","4007077-00","","0","4007077","",""
"4007078-00","","三間坂","","33.194918","129.951232","4007078-00","","0","4007078","",""
"4007079-00","","三間坂駅前","","33.194944","129.948124","4007079-00","","0","4007079","",""
"4007076-20","","茅場(2)","","33.196043","129.960659","4007076-20","","0","4007076","",""
"4007075-01","","岩井手(1)","","33.196323","129.963195","4007075-01","","0","4007075","",""
"4026307-10","","小六川(1)","","33.196958","129.969114","4026307-10","","0","4026307","",""
"4026306-10","","永尾駅前(1)","","33.193304","129.980912","4026306-10","","0","4026306","",""
"4026305-10","","踊瀬(1)","","33.19093","129.983231","4026305-10","","0","4026305","",""
"4027308-00","","踊瀬ダム前","","33.185802","129.988034","4027308-00","","0","4027308","",""
"4026304-10","","下山入口(1)","","33.184065","129.99432","4026304-10","","0","4026304","",""
"4027309-00","","谷口眼科前","","33.185401","129.997831","4027309-00","","0","4027309","",""
"4026303-10","","上西山(1)","","33.186802","130.001155","4026303-10","","0","4026303","",""
"4026302-10","","若葉台入口(1)","","33.188303","130.00464","4026302-10","","0","4026302","",""
"4026301-10","","武雄警察署前(1)","","33.18992","130.009566","4026301-10","","0","4026301","",""
"4026298-10","","御船ヶ丘小学校前(1)","","33.187419","130.026682","4026298-10","","0","4026298","",""
"4007054-10","","三坂(1)","","33.12196","129.999139","4007054-10","","0","4007054","",""
"4007055-10","","長谷(1)","","33.128589","129.994105","4007055-10","","0","4007055","",""
"4007056-10","","小田志口(1)","","33.129785","129.992273","4007056-10","","0","4007056","",""
"4007057-10","","日出城(1)","","33.135613","129.987743","4007057-10","","0","4007057","",""
"4007059-10","","弓野(1)","","33.137399","129.981632","4007059-10","","0","4007059","",""
"4007060-20","","弓野橋(2)","","33.138742","129.978862","4007060-20","","0","4007060","",""
"4007067-00","","宮の前","","33.147246","129.975869","4007067-00","","0","4007067","",""
"4007068-00","","上高瀬","","33.151638","129.973977","4007068-00","","0","4007068","",""
"4007069-10","","犬走峠(1)","","33.164821","129.967749","4007069-10","","0","4007069","",""
"4007070-00","","犬走公民館前","","33.171086","129.969297","4007070-00","","0","4007070","",""
"4007071-10","","中郷(1)","","33.174071","129.969969","4007071-10","","0","4007071","",""
"4007072-00","","寺の前","","33.17744","129.97156","4007072-00","","0","4007072","",""
"4007073-00","","踊瀬入口","","33.180287","129.973775","4007073-00","","0","4007073","",""
"4007074-10","","山内東小学校前(1)","","33.193411","129.963596","4007074-10","","0","4007074","",""
"4007075-02","","岩井手(2)","","33.195849","129.962862","4007075-02","","0","4007075","",""
"4007074-20","","山内東小学校前(2)","","33.19285","129.964491","4007074-20","","0","4007074","",""
"4007071-20","","中郷(2)","","33.174675","129.970345","4007071-20","","0","4007071","",""
"4007069-20","","犬走峠(2)","","33.164939","129.967994","4007069-20","","0","4007069","",""
"4007059-20","","弓野(2)","","33.137219","129.982436","4007059-20","","0","4007059","",""
"4007058-00","","日出城西","","33.136877","129.987112","4007058-00","","0","4007058","",""
"4007057-20","","日出城(2)","","33.136112","129.988131","4007057-20","","0","4007057","",""
"4007056-20","","小田志口(2)","","33.129952","129.992275","4007056-20","","0","4007056","",""
"4007055-20","","長谷(2)","","33.127991","129.995214","4007055-20","","0","4007055","",""
"4007054-20","","三坂(2)","","33.122929","129.998278","4007054-20","","0","4007054","",""
"4007060-10","","弓野橋(1)","","33.137968","129.978485","4007060-10","","0","4007060","",""
"4007061-00","","西川登小学校前","","33.138078","129.971937","4007061-00","","0","4007061","",""
"4007062-00","","庭木","","33.137951","129.966929","4007062-00","","0","4007062","",""
"4007063-00","","神六","","33.14155","129.958311","4007063-00","","0","4007063","",""
"4007064-10","","上神六(1)","","33.141648","129.954463","4007064-10","","0","4007064","",""
"4007065-00","","矢筈入口","","33.141351","129.948997","4007065-00","","0","4007065","",""
"4007066-00","","矢筈","","33.154726","129.944592","4007066-00","","0","4007066","",""
"4007064-20","","上神六(2)","","33.142123","129.954061","4007064-20","","0","4007064","",""
"4005050-00","","七ツ川内","","33.101735","130.023492","4005050-00","","0","4005050","",""
"4005049-00","","下吉田","","33.101879","130.019209","4005049-00","","0","4005049","",""
"4005048-00","","下永尾","","33.105829","130.017292","4005048-00","","0","4005048","",""
"4005047-00","","広瀬橋","","33.109331","130.015585","4005047-00","","0","4005047","",""
"4005046-00","","飯盛","","33.110994","130.010748","4005046-00","","0","4005046","",""
"4005045-00","","下野","","33.109592","130.009122","4005045-00","","0","4005045","",""
"4005044-03","","下野公民館前(3)","","33.106339","130.005556","4005044-03","","0","4005044","",""
"4005043-00","","羽白越","","33.105034","130.003942","4005043-00","","0","4005043","",""
"4005037-20","","嬉野小学校入口(2)","","33.10261","129.98605","4005037-20","","0","4005037","",""
"4005036-00","","嬉野中学校前","","33.108633","129.98664","4005036-00","","0","4005036","",""
"4005037-10","","嬉野小学校入口(1)","","33.102745","129.986109","4005037-10","","0","4005037","",""
"4005044-02","","下野公民館前(2)","","33.1071","130.005845","4005044-02","","0","4005044","",""
"4005044-01","","下野公民館前(1)","","33.107496","130.00485","4005044-01","","0","4005044","",""
"4013130-00","","朝鍋宿","","33.221081","130.152528","4013130-00","","0","4013130","",""
"4013131-00","","土元","","33.226396","130.154426","4013131-00","","0","4013131","",""
"4013132-00","","門前","","33.232892","130.150677","4013132-00","","0","4013132","",""
"4013133-00","","花祭","","33.243972","130.152248","4013133-00","","0","4013133","",""
"4013148-00","","白木パノラマ孔園前","","33.2411","130.135468","4013148-00","","0","4013148","",""
"4013147-00","","平山","","33.236984","130.135435","4013147-00","","0","4013147","",""
"4013146-00","","岳","","33.232668","130.136133","4013146-00","","0","4013146","",""
"4013145-00","","仲町","","33.231629","130.139148","4013145-00","","0","4013145","",""
"4013144-00","","上小田集会所前","","33.229676","130.141436","4013144-00","","0","4013144","",""
"4013143-00","","上小田浄水場","","33.230222","130.143797","4013143-00","","0","4013143","",""
"4013142-00","","永林寺保育園前","","33.228649","130.144219","4013142-00","","0","4013142","",""
"4013141-00","","小田商店街入口","","33.226837","130.142734","4013141-00","","0","4013141","",""
"4013140-00","","古賀小児科前","","33.225606","130.14489","4013140-00","","0","4013140","",""
"4013126-00","","江北小学校前","","33.214367","130.158569","4013126-00","","0","4013126","",""
"4013127-10","","幼児教育センター(1)","","33.216361","130.16033","4013127-10","","0","4013127","",""
"4013151-00","","山口駅前(南口)","","33.218605","130.160693","4013151-00","","0","4013151","",""
"4013135-01","","杵島商校前(1)","","33.21778","130.137339","4013135-01","","0","4013135","",""
"4013136-00","","観音下","","33.218782","130.136487","4013136-00","","0","4013136","",""
"4013137-00","","天子社","","33.223467","130.135346","4013137-00","","0","4013137","",""
"4013138-00","","上区","","33.226365","130.136076","4013138-00","","0","4013138","",""
"4013139-00","","岩屋団地","","33.230487","130.137805","4013139-00","","0","4013139","",""
"4013149-00","","ＳＵＭＣＯ前","","33.232028","130.140977","4013149-00","","0","4013149","",""
"4013150-00","","日の出町","","33.231216","130.144382","4013150-00","","0","4013150","",""
"4013127-20","","幼児教育センター(2)","","33.216289","130.16081","4013127-20","","0","4013127","",""
"4013128-00","","イオン江北店","","33.216854","130.162279","4013128-00","","0","4013128","",""
"4020226-03","","竹崎入口(3)","","32.968529","130.204138","4020226-03","","0","4020226","",""
"4020240-00","","コロニー入口","","32.96602","130.205343","4020240-00","","0","4020240","",""
"4020241-00","","道越","","32.961151","130.216841","4020241-00","","0","4020241","",""
"4020242-00","","観世音横","","32.956982","130.221008","4020242-00","","0","4020242","",""
"4020243-00","","竹崎本泊","","32.955407","130.220234","4020243-00","","0","4020243","",""
"4020244-00","","竹崎港","","32.954426","130.218366","4020244-00","","0","4020244","",""
"4020225-03","","風配登山口(3)","","32.972597","130.204899","4020225-03","","0","4020225","",""
"4020245-00","","平野","","32.974665","130.191953","4020245-00","","0","4020245","",""
"4020246-00","","上平野","","32.97505","130.189128","4020246-00","","0","4020246","",""
"4020247-00","","長川原","","32.977397","130.179616","4020247-00","","0","4020247","",""
"4020248-00","","黒金入口","","32.975651","130.176371","4020248-00","","0","4020248","",""
"4020249-00","","大町入口","","32.97396","130.173947","4020249-00","","0","4020249","",""
"4020250-00","","広谷入口","","32.974797","130.1716","4020250-00","","0","4020250","",""
"4020230-20","","多良駅前(2)","","33.025444","130.177508","4020230-20","","0","4020230","",""
"4020231-00","","畑田","","33.023897","130.174886","4020231-00","","0","4020231","",""
"4020232-00","","上畑田","","33.02386","130.171421","4020232-00","","0","4020232","",""
"4020233-00","","瀬戸","","33.023534","130.165861","4020233-00","","0","4020233","",""
"4020234-00","","上川原","","33.022755","130.156177","4020234-00","","0","4020234","",""
"4020235-00","","郷式","","33.020549","130.14617","4020235-00","","0","4020235","",""
"4020236-00","","大川内","","33.010197","130.131778","4020236-00","","0","4020236","",""
"4020237-00","","下中山","","33.001612","130.114318","4020237-00","","0","4020237","",""
"4020238-00","","音谷","","32.998836","130.111092","4020238-00","","0","4020238","",""
"4020239-00","","中山","","32.995287","130.108315","4020239-00","","0","4020239","",""
"4020230-10","","多良駅前(1)","","33.025545","130.177587","4020230-10","","0","4020230","",""
"4003001-05","","鹿島バスセンター(5)","","33.114117","130.096778","4003001-05","","0","4003001","",""
"4022251-00","","幸通り","","33.108855","130.096163","4022251-00","","0","4022251","",""
"4022252-00","","道場前","","33.107052","130.095486","4022252-00","","0","4022252","",""
"4022253-00","","鹿島小学校前","","33.103838","130.09493","4022253-00","","0","4022253","",""
"4022254-00","","体育館前","","33.10184","130.093646","4022254-00","","0","4022254","",""
"4022255-20","","西部中学校前(2)","","33.098523","130.093354","4022255-20","","0","4022255","",""
"4022259-00","","辻宿","","33.094189","130.093062","4022259-00","","0","4022259","",""
"4022260-00","","農協前","","33.093258","130.091428","4022260-00","","0","4022260","",""
"4022261-20","","川原入口(2)","","33.091477","130.088273","4022261-20","","0","4022261","",""
"4022262-20","","大井手(2)","","33.088656","130.082949","4022262-20","","0","4022262","",""
"4022263-00","","大木庭入口","","33.086041","130.077976","4022263-00","","0","4022263","",""
"4022264-00","","大木庭","","33.084556","130.074646","4022264-00","","0","4022264","",""
"4022265-00","","高仙寺","","33.083466","130.071802","4022265-00","","0","4022265","",""
"4022266-20","","三河内(2)","","33.078038","130.06745","4022266-20","","0","4022266","",""
"4022267-00","","三獄神社前","","33.076861","130.066741","4022267-00","","0","4022267","",""
"4022268-00","","東木庭","","33.074414","130.065626","4022268-00","","0","4022268","",""
"4022269-00","","山下入口","","33.069714","130.063146","4022269-00","","0","4022269","",""
"4022270-00","","山下","","33.066078","130.060924","4022270-00","","0","4022270","",""
"4022271-00","","平原","","33.061766","130.057833","4022271-00","","0","4022271","",""
"4022272-00","","掛橋入口","","33.060956","130.057179","4022272-00","","0","4022272","",""
"4022273-00","","早の瀬","","33.054891","130.051646","4022273-00","","0","4022273","",""
"4022274-00","","大野","","33.041737","130.044807","4022274-00","","0","4022274","",""
"4022266-10","","三河内(1)","","33.078141","130.067243","4022266-10","","0","4022266","",""
"4022262-10","","大井手(1)","","33.088797","130.083155","4022262-10","","0","4022262","",""
"4022261-10","","川原入口(1)","","33.092051","130.088574","4022261-10","","0","4022261","",""
"4022255-10","","西部中学校前(1)","","33.098542","130.093192","4022255-10","","0","4022255","",""
"4022258-00","","行成","","33.097343","130.098578","4022258-00","","0","4022258","",""
"4022288-20","","筒口(2)","","33.089287","130.093322","4022288-20","","0","4022288","",""
"4022289-00","","構江","","33.087074","130.094969","4022289-00","","0","4022289","",""
"4022290-00","","権現橋","","33.081166","130.095858","4022290-00","","0","4022290","",""
"4022291-00","","川内","","33.075362","130.095199","4022291-00","","0","4022291","",""
"4022292-00","","野口","","33.068577","130.092887","4022292-00","","0","4022292","",""
"4022293-00","","山方","","33.060666","130.095777","4022293-00","","0","4022293","",""
"4022294-00","","山浦","","33.056661","130.094172","4022294-00","","0","4022294","",""
"4022295-00","","長野","","33.052261","130.090651","4022295-00","","0","4022295","",""
"4022288-10","","筒口(1)","","33.088996","130.093332","4022288-10","","0","4022288","",""
"4022281-00","","貝瀬","","33.07272","130.068384","4022281-00","","0","4022281","",""
"4022282-00","","土穴","","33.064828","130.070434","4022282-00","","0","4022282","",""
"4022283-00","","本城入口","","33.058138","130.0704","4022283-00","","0","4022283","",""
"4022284-00","","本城","","33.052594","130.071266","4022284-00","","0","4022284","",""
"4022285-00","","尾崎","","33.048567","130.069289","4022285-00","","0","4022285","",""
"4003014-00","","東山公園入口","","33.074433","130.10938","4003014-00","","0","4003014","",""
"4003015-00","","鮒越入口","","33.072628","130.109077","4003015-00","","0","4003015","",""
"4003016-00","","公民分館前","","33.068802","130.108959","4003016-00","","0","4003016","",""
"4003017-00","","上古枝","","33.064977","130.108088","4003017-00","","0","4003017","",""
"4003018-00","","中尾","","33.05728","130.108483","4003018-00","","0","4003018","",""
"4003019-00","","永田","","33.054215","130.109569","4003019-00","","0","4003019","",""
"4003020-00","","上中尾","","33.050154","130.110928","4003020-00","","0","4003020","",""
"4003021-00","","藤の瀬","","33.040158","130.112786","4003021-00","","0","4003021","",""
"4003022-00","","日当山","","33.0361","130.110007","4003022-00","","0","4003022","",""
"4003023-00","","小畑","","33.033602","130.108907","4003023-00","","0","4003023","",""
"4003024-00","","赤岩","","33.029669","130.104349","4003024-00","","0","4003024","",""
"4003025-00","","奥山","","33.024555","130.098663","4003025-00","","0","4003025","",""
"4003026-00","","好日の園","","33.072862","130.112488","4003026-00","","0","4003026","",""
"4003027-00","","鮒越","","33.070172","130.113482","4003027-00","","0","4003027","",""
"4003028-00","","田代","","33.062511","130.113355","4003028-00","","0","4003028","",""
"4003029-00","","花取","","33.055477","130.116577","4003029-00","","0","4003029","",""
"4003030-00","","婦人ホーム前","","33.039394","130.117514","4003030-00","","0","4003030","",""
"4003031-00","","矢答","","33.027432","130.114328","4003031-00","","0","4003031","",""
"3117744-03","","鳴瀬分道(3)","","33.209737","130.045255","3117744-03","","0","3117744","",""
"4031357-00","","二俣","","33.204683","130.049389","4031357-00","","0","4031357","",""
"4031358-00","","鳴瀬","","33.201725","130.054292","4031358-00","","0","4031358","",""
"4050809-00","","西医王寺","","33.206652","130.057854","4050809-00","","0","4050809","",""
"4050807-00","","医王寺","","33.208114","130.06575","4050807-00","","0","4050807","",""
"4050812-00","","折尾","","33.208849","130.070877","4050812-00","","0","4050812","",""
"4050811-00","","芦原","","33.208389","130.075779","4050811-00","","0","4050811","",""
"4050801-00","","椛島","","33.207094","130.082838","4050801-00","","0","4050801","",""
"4050810-00","","蔵堂","","33.205688","130.088461","4050810-00","","0","4050810","",""
"4050808-00","","大渡","","33.208681","130.092329","4050808-00","","0","4050808","",""
"4050802-00","","富吉神社前","","33.203637","130.093654","4050802-00","","0","4050802","",""
"4050803-00","","永谷団地","","33.223262","130.084973","4050803-00","","0","4050803","",""
"4050804-00","","大峠入口","","33.225122","130.086768","4050804-00","","0","4050804","",""
"4050805-00","","長寿園口","","33.219821","130.090296","4050805-00","","0","4050805","",""
"4050806-00","","北方幼稚園前","","33.218734","130.06836","4050806-00","","0","4050806","",""
"4031345-00","","温泉楼門","","33.196553","130.014858","4031345-00","","0","4031345","",""
"4031347-00","","新武雄病院前","","33.197756","130.034369","4031347-00","","0","4031347","",""
"4031348-00","","アクロスプラザ","","33.198338","130.033252","4031348-00","","0","4031348","",""
"3116702-03","","甘久西(3)","","33.201707","130.030641","3116702-03","","0","3116702","",""
"4031349-00","","武雄中学校裏","","33.201833","130.026388","4031349-00","","0","4031349","",""
"4031350-00","","Ａコープ川良前","","33.202539","130.024437","4031350-00","","0","4031350","",""
"4031351-00","","鳥居前","","33.205951","130.025143","4031351-00","","0","4031351","",""
"4031352-00","","中野住宅入口","","33.208821","130.028064","4031352-00","","0","4031352","",""
"4031353-00","","八幡神社前","","33.2117","130.028994","4031353-00","","0","4031353","",""
"4031354-00","","中野","","33.215735","130.028694","4031354-00","","0","4031354","",""
"4031355-00","","黒尾","","33.2189","130.027981","4031355-00","","0","4031355","",""
"4031356-20","","中野入口(2)","","33.221039","130.027815","4031356-20","","0","4031356","",""
"3116709-20","","善福寺入口(2)","","33.221356","130.028818","3116709-20","","0","3116709","",""
"3116708-00","","小原","","33.21715","130.035452","3116708-00","","0","3116708","",""
"3116707-00","","朝日小学校前","","33.213941","130.039783","3116707-00","","0","3116707","",""
"3116706-00","","高橋宿","","33.211689","130.042088","3116706-00","","0","3116706","",""
"4031359-00","","釈迦寺","","33.196111","130.056282","4031359-00","","0","4031359","",""
"4031360-00","","片白","","33.191733","130.056611","4031360-00","","0","4031360","",""
"4031361-00","","南片白","","33.188223","130.056358","4031361-00","","0","4031361","",""
"4031362-00","","橘農協前","","33.184633","130.055351","4031362-00","","0","4031362","",""
"4031363-00","","納手","","33.185168","130.046652","4031363-00","","0","4031363","",""
"4031364-10","","野間峠(1)","","33.18712","130.029248","4031364-10","","0","4031364","",""
"4030344-10","","文化会館前(1)","","33.192452","130.024916","4030344-10","","0","4030344","",""
"4030344-20","","文化会館前(2)","","33.192082","130.02462","4030344-20","","0","4030344","",""
"4031364-20","","野間峠(2)","","33.187168","130.030344","4031364-20","","0","4031364","",""
"3116709-10","","善福寺入口(1)","","33.2214","130.028394","3116709-10","","0","3116709","",""
"4031356-10","","中野入口(1)","","33.221198","130.027988","4031356-10","","0","4031356","",""
"4032369-00","","小楠","","33.199187","130.025266","4032369-00","","0","4032369","",""
"4032370-00","","川良東","","33.203644","130.021606","4032370-00","","0","4032370","",""
"4032371-10","","円応寺馬場(1)","","33.204812","130.018379","4032371-10","","0","4032371","",""
"4032372-00","","赤穂山","","33.216092","130.001025","4032372-00","","0","4032372","",""
"4032373-00","","本谷入口","","33.215237","129.99454","4032373-00","","0","4032373","",""
"4032374-00","","一軒茶屋","","33.214687","129.98318","4032374-00","","0","4032374","",""
"4032375-00","","長谷入口","","33.215406","129.980131","4032375-00","","0","4032375","",""
"4032376-00","","宇土谷","","33.218189","129.977747","4032376-00","","0","4032376","",""
"4032377-00","","上古賀","","33.220914","129.976281","4032377-00","","0","4032377","",""
"4032378-00","","馬場","","33.227013","129.972295","4032378-00","","0","4032378","",""
"4032379-00","","黒牟田入口","","33.231385","129.969819","4032379-00","","0","4032379","",""
"4032380-00","","松尾","","33.235336","129.968643","4032380-00","","0","4032380","",""
"4032381-00","","馬渡公民館前","","33.241006","129.971414","4032381-00","","0","4032381","",""
"4032382-00","","武雄北中学校前","","33.242013","129.975587","4032382-00","","0","4032382","",""
"4032383-00","","山中公民館前","","33.244514","129.978652","4032383-00","","0","4032383","",""
"3116722-20","","若木公民館前(2)","","33.254302","129.991168","3116722-20","","0","3116722","",""
"4032384-00","","柿田代公民館前","","33.2409","129.967549","4032384-00","","0","4032384","",""
"4032385-00","","多々良入口","","33.236815","129.966957","4032385-00","","0","4032385","",""
"4032386-00","","亀の甲","","33.232016","129.966467","4032386-00","","0","4032386","",""
"4032387-00","","病院前","","33.229891","129.964346","4032387-00","","0","4032387","",""
"4032388-00","","梅の原","","33.226338","129.963966","4032388-00","","0","4032388","",""
"4032389-00","","海正原","","33.217672","129.962867","4032389-00","","0","4032389","",""
"4032390-00","","鯰渕","","33.212922","129.964934","4032390-00","","0","4032390","",""
"4032391-00","","森の木公民館前","","33.212187","129.973005","4032391-00","","0","4032391","",""
"4032368-00","","水道公園前","","33.201054","130.024411","4032368-00","","0","4032368","",""
"4033392-20","","高木眼科前(2)","","33.111475","130.091699","4033392-20","","0","4033392","",""
"4033393-20","","御神松(2)","","33.111907","130.088785","4033393-20","","0","4033393","",""
"4033397-00","","ララベル","","33.097637","130.101816","4033397-00","","0","4033397","",""
"4033396-10","","どんとこい前(1)","","33.096992","130.093878","4033396-10","","0","4033396","",""
"4033393-10","","御神松(1)","","33.112016","130.08859","4033393-10","","0","4033393","",""
"4033392-10","","高木眼科前(1)","","33.111494","130.092026","4033392-10","","0","4033392","",""
"4033396-20","","どんとこい前(2)","","33.096933","130.094044","4033396-20","","0","4033396","",""
"1001002","","佐賀駅バスセンター","","33.2645244","130.2992587","","","1","","",""
"1002003","","市役所前","","33.2637","130.300125","","","1","","",""
"1002004","","駅南本町","","33.2617823","130.2983558","","","1","","",""
"1002005","","唐人町","","33.2584455","130.2991305","","","1","","",""
"1002006","","白山","","33.2550875","130.2997195","","","1","","",""
"1002007","","中の小路","","33.2539385","130.2999175","","","1","","",""
"1002008","","県庁前","","33.2514285","130.300229","","","1","","",""
"1002009","","佐嘉神社前","","33.2510705","130.3027565","","","1","","",""
"1011039","","片田江","","33.2513793","130.3060607","","","1","","",""
"1020092","","水ヶ江大通り","","33.24954","130.30637","","","1","","",""
"1020093","","大隈重信記念館入口","","33.24835","130.30672","","","1","","",""
"1020094","","竜校前","","33.245995","130.308005","","","1","","",""
"1020095","","横小路","","33.24389","130.308435","","","1","","",""
"1020096","","大崎","","33.2412825","130.310025","","","1","","",""
"1023135","","袋住宅前","","33.23877","130.31017","","","1","","",""
"1023136","","八田橋","","33.237125","130.31028","","","1","","",""
"1023137","","八田宮前","","33.233625","130.3117","","","1","","",""
"1023138","","三角茶屋","","33.23026","130.312255","","","1","","",""
"1023139","","南里","","33.226045","130.31334","","","1","","",""
"1023140","","農業大学校前","","33.22329","130.31341","","","1","","",""
"1023141","","南里南","","33.220235","130.313385","","","1","","",""
"1023142","","坂井","","33.21463","130.313285","","","1","","",""
"1023143","","西古賀","","33.21084","130.31327","","","1","","",""
"1023144","","西川副小学校前","","33.207435","130.31356","","","1","","",""
"1023145","","鋤崎","","33.202665","130.314095","","","1","","",""
"1023146","","小々森入口","","33.196595","130.314775","","","1","","",""
"1023147","","鹿江団地東","","33.193645","130.315225","","","1","","",""
"1023148","","咾分","","33.19178","130.316285","","","1","","",""
"1023149","","川副支所前","","33.19154","130.31921","","","1","","",""
"1023150","","犬井道","","33.189865","130.3198","","","1","","",""
"1023151","","平田分","","33.189325","130.32321","","","1","","",""
"1023152","","和崎","","33.190135","130.329065","","","1","","",""
"1023153","","中津","","33.18971","130.3311","","","1","","",""
"1023154","","上の小路","","33.182755","130.34248","","","1","","",""
"1023155","","大詫間","","33.17902","130.34241","","","1","","",""
"1020097","","自動車学校前","","33.240065","130.314665","","","1","","",""
"1020098","","南佐賀","","33.23891","130.317185","","","1","","",""
"1020099","","東高校前","","33.23743","130.32052","","","1","","",""
"1020100","","千々岩","","33.235745","130.32437","","","1","","",""
"1020101","","光法西","","33.23402","130.32817","","","1","","",""
"1020102","","光法","","33.23236","130.33194","","","1","","",""
"1020103","","山領北","","33.230395","130.33641","","","1","","",""
"1020104","","山領","","33.228195","130.34124","","","1","","",""
"1020105","","野町","","33.226815","130.34444","","","1","","",""
"1020106","","小杭","","33.224675","130.34917","","","1","","",""
"1020107","","諸富支所前","","33.222775","130.353415","","","1","","",""
"1020108","","諸富橋","","33.222735","130.36097","","","1","","",""
"1020109","","昇開橋前","","33.218155","130.360915","","","1","","",""
"1020110","","石塚","","33.215535","130.3563","","","1","","",""
"1020111","","浮盃","","33.214095","130.3528","","","1","","",""
"1020112","","寺井橋","","33.21365","130.34671","","","1","","",""
"1020113","","上下角","","33.212883","130.342411","","","1","","",""
"1020114","","佐野常民記念館入口","","33.212735","130.337685","","","1","","",""
"1020115","","上早","","33.211085","130.335425","","","1","","",""
"1020116","","中川副小学校前","","33.208795","130.335355","","","1","","",""
"1020118","","早津江","","33.20546","130.3353","","","1","","",""
"1020117","","中早","","33.20673","130.33524","","","1","","",""
"1021119","","水ヶ江","","33.24705","130.309165","","","1","","",""
"1021120","","朝日町","","33.2474","130.31207","","","1","","",""
"1021121","","安住団地入口","","33.24531","130.314395","","","1","","",""
"1021122","","武藤","","33.242075","130.31608","","","1","","",""
"1021123","","中原眼科前","","33.24102","130.320695","","","1","","",""
"1021124","","北川副小西","","33.24012","130.32247","","","1","","",""
"1021125","","北川副公民館前","","33.238995","130.32398","","","1","","",""
"1021126","","江上","","33.239225","130.32754","","","1","","",""
"1021127","","増田宿","","33.238675","130.33154","","","1","","",""
"1021128","","光法団地前","","33.235915","130.331765","","","1","","",""
"1021129","","光法北","","33.23357","130.331855","","","1","","",""
"1021130","","諸富橋北","","33.22375","130.36409","","","1","","",""
"1021131","","味の素東門","","33.225465","130.365815","","","1","","",""
"1021132","","徳富大橋","","33.22939","130.37036","","","1","","",""
"1021133","","徳富","","33.234935","130.370825","","","1","","",""
"1021134","","橋津","","33.23615","130.3698","","","1","","",""
"1030219","","堀江通","","33.26394","130.2932925","","","1","","",""
"1030220","","東神野","","33.266635","130.293645","","","1","","",""
"1030221","","三溝","","33.269115","130.29383","","","1","","",""
"1030222","","商業高校前","","33.271385","130.29399","","","1","","",""
"1030223","","市文化会館前","","33.276375","130.293275","","","1","","",""
"1030224","","総合体育館前","","33.27857","130.292695","","","1","","",""
"1030225","","館橋","","33.28103","130.29215","","","1","","",""
"1030226","","高木瀬小学校前","","33.284275","130.291215","","","1","","",""
"1030227","","高木瀬公民館前","","33.286373","130.28934","","","1","","",""
"1030228","","高木瀬工場団地","","33.288325","130.288355","","","1","","",""
"1030229","","三本松","","33.29477","130.286785","","","1","","",""
"1030230","","川原","","33.298825","130.285385","","","1","","",""
"1030231","","福田","","33.30178","130.2844","","","1","","",""
"1030232","","グリコ乳業前","","33.3045445","130.283372","","","1","","",""
"1030233","","尼寺","","33.30855","130.282035","","","1","","",""
"1030234","","尼寺東","","33.3105083","130.284374","","","1","","",""
"1030235","","真島","","33.311015","130.28823","","","1","","",""
"1030236","","福島","","33.31091","130.292475","","","1","","",""
"1030237","","西千布","","33.310495","130.29728","","","1","","",""
"1030238","","千布","","33.310265","130.300115","","","1","","",""
"1030239","","金立団地前","","33.31211","130.300975","","","1","","",""
"1030240","","整肢学園前","","33.3150505","130.3010635","","","1","","",""
"1030241","","金立","","33.31902","130.30118","","","1","","",""
"1030242","","正現社前","","33.320575","130.30243","","","1","","",""
"1030243","","来迎寺","","33.321525","130.306145","","","1","","",""
"1030244","","若宮原","","33.322525","130.313075","","","1","","",""
"1030245","","自動車試験場前","","33.32365","130.31613","","","1","","",""
"1030246","","運転免許センター","","33.32443","130.31787","","","1","","",""
"1030218","","佐賀駅北口","","33.26516","130.296832","","","1","","",""
"1030247","","開拓入口","","33.32502","130.30476","","","1","","",""
"1030248","","弘学館前","","33.328065","130.30526","","","1","","",""
"1030249","","金立いこいの広場","","33.32827","130.308775","","","1","","",""
"1030250","","島崎","","33.32505","130.3086","","","1","","",""
"1003021","","佐賀女子短大・高校前","","33.24626","130.28627","","","1","","",""
"1003016","","道祖元町","","33.247485","130.28502","","","1","","",""
"1003015","","西田代","","33.249276","130.287697","","","1","","",""
"1003013","","辻の堂","","33.250473","130.2940623","","","1","","",""
"1003012","","県警本部前","","33.250695","130.298559","","","1","","",""
"1003020","","旭学園通り南","","33.244215","130.28669","","","1","","",""
"1003019","","佐賀大学西","","33.244515","130.288595","","","1","","",""
"1003018","","佐賀大学前","","33.2447967","130.29317","","","1","","",""
"1003017","","与賀町","","33.24861","130.292725","","","1","","",""
"1003011","","県庁前","","33.250532","130.298565","","","1","","",""
"1003014","","与賀町西","","33.249783","130.291639","","","1","","",""
"1006034","","佐賀城跡","","33.2467","130.30214","","","1","","",""
"1006033","","サガテレビ前","","33.247155","130.30082","","","1","","",""
"1006032","","県庁舎","","33.248385","130.30057","","","1","","",""
"1024168","","どんどんどんの森東","","33.2619625","130.2936","","","1","","",""
"1058324","","どんどんどんの森前","","33.259115","130.29129","","","1","","",""
"1058325","","多布施","","33.258935","130.289745","","","1","","",""
"1058326","","多布施橋","","33.258555","130.28629","","","1","","",""
"1058327","","佐賀工業高校前","","33.25793","130.28418","","","1","","",""
"1058328","","中折","","33.25736","130.282285","","","1","","",""
"1058329","","北高前","","33.256535","130.278575","","","1","","",""
"1058330","","新栄小前","","33.25629","130.27585","","","1","","",""
"1058331","","新栄小西","","33.256085","130.27055","","","1","","",""
"1058332","","鍋島駅南","","33.255825","130.265395","","","1","","",""
"1058333","","鍋島駅西","","33.26158","130.263145","","","1","","",""
"1058334","","江頭西","","33.264005","130.262705","","","1","","",""
"1058335","","市営江頭団地前","","33.2650488","130.2615934","","","1","","",""
"1058336","","クレオパーク鍋島北","","33.26663","130.25948","","","1","","",""
"1058337","","クレオパーク鍋島","","33.26495","130.25958","","","1","","",""
"1024169","","駅南本町西","","33.261605","130.297195","","","1","","",""
"1059338","","新栄団地","","33.25953","130.277175","","","1","","",""
"1059339","","八戸溝一丁目","","33.26142","130.27522","","","1","","",""
"1059340","","八戸溝二丁目","","33.26175","130.274065","","","1","","",""
"1059341","","西佐賀団地","","33.261345","130.270375","","","1","","",""
"1059342","","鍋島駅北","","33.260555","130.26602","","","1","","",""
"1059343","","江頭","","33.26268","130.2641","","","1","","",""
"1059344","","深町","","33.254865","130.264235","","","1","","",""
"1059345","","扇町北","","33.245575","130.265805","","","1","","",""
"1019091","","医療センター好生館","","33.241555","130.267985","","","1","","",""
"1024156","","博物館前","","33.245065","130.301455","","","1","","",""
"1024157","","赤松小学校前","","33.24354","130.301835","","","1","","",""
"1024158","","中の館","","33.242125","130.302045","","","1","","",""
"1024159","","鬼丸","","33.23997","130.30214","","","1","","",""
"1025170","","袋入口","","33.23756","130.301805","","","1","","",""
"1025171","","末次","","33.2343","130.30161","","","1","","",""
"1025172","","末次南","","33.23098","130.301835","","","1","","",""
"1025173","","満穴","","33.2275","130.30203","","","1","","",""
"1025174","","中島","","33.22463","130.30246","","","1","","",""
"1025175","","立野北","","33.22261","130.30214","","","1","","",""
"1025176","","立野","","33.22041","130.30194","","","1","","",""
"1025177","","西船津","","33.21111","130.30115","","","1","","",""
"1025178","","佐房","","33.20796","130.29932","","","1","","",""
"1025179","","新村","","33.20406","130.29813","","","1","","",""
"1025180","","久町","","33.19907","130.29802","","","1","","",""
"1025181","","広江","","33.19752","130.29768","","","1","","",""
"1025182","","小々森","","33.196945","130.304965","","","1","","",""
"1025183","","南部消防署前","","33.19746","130.31117","","","1","","",""
"1011035","","市役所南","","33.2626415","130.3016215","","","1","","",""
"1011036","","戸上電機前","","33.261899","130.303619","","","1","","",""
"1056303","","大財五丁目","","33.26172","130.308325","","","1","","",""
"1056304","","大財六丁目","","33.26234","130.311265","","","1","","",""
"1056305","","下村河畔","","33.263205","130.315505","","","1","","",""
"1056306","","佐賀中部病院西","","33.264135","130.31708","","","1","","",""
"1056307","","東中野","","33.26644","130.315895","","","1","","",""
"1056308","","兵庫小学校西","","33.272315","130.31757","","","1","","",""
"1056309","","下渕南","","33.2736","130.31734","","","1","","",""
"1056310","","下渕","","33.27771","130.31651","","","1","","",""
"1056311","","妙常寺前","","33.28048","130.31544","","","1","","",""
"1056312","","うえむら病院前","","33.28223","130.31462","","","1","","",""
"1056313","","兵庫団地前","","33.284365","130.314765","","","1","","",""
"1056314","","初町","","33.28874","130.31458","","","1","","",""
"1056315","","東渕","","33.29063","130.31419","","","1","","",""
"1056316","","渕頭","","33.29187","130.31374","","","1","","",""
"1056317","","かささぎの里前","","33.30114","130.31323","","","1","","",""
"1056318","","徳永","","33.302845","130.314115","","","1","","",""
"1056319","","白鬚神社前","","33.303745","130.31861","","","1","","",""
"1056320","","村徳永","","33.30796","130.31915","","","1","","",""
"1056321","","工業団地事務所前","","33.311525","130.318675","","","1","","",""
"1056322","","久保泉工業団地西","","33.31254","130.319655","","","1","","",""
"1056323","","久保泉工業団地","","33.31266","130.32291","","","1","","",""
"1036265","","九電工前","","33.26688","130.29544","","","1","","",""
"1036266","","電通通り","","33.26621","130.291015","","","1","","",""
"1036267","","真生幼稚園前","","33.266045","130.287635","","","1","","",""
"1036268","","神野西四丁目","","33.268345","130.287015","","","1","","",""
"1036269","","西九大神園前","","33.27195","130.28655","","","1","","",""
"1036270","","若楠小学校前","","33.275555","130.28605","","","1","","",""
"1036271","","運輸支局西","","33.278965","130.284805","","","1","","",""
"1036272","","北陵高校前","","33.28127","130.28409","","","1","","",""
"1036273","","市営高木団地","","33.283065","130.28386","","","1","","",""
"1036274","","高木瀬西四丁目","","33.285255","130.284445","","","1","","",""
"1036275","","高木瀬西五丁目","","33.285715","130.287245","","","1","","",""
"1036276","","アルタ高木瀬店前","","33.2924375","130.2860325","","","1","","",""
"1036277","","佐賀記念病院","","33.29309","130.28262","","","1","","",""
"1005023","","佐賀学園北","","33.267625","130.30031","","","1","","",""
"1032251","","藤木","","33.27011","130.30088","","","1","","",""
"1032252","","致遠館前","","33.272025","130.300385","","","1","","",""
"1032253","","警察署前","","33.274115","130.299855","","","1","","",""
"1032254","","市文化会館東","","33.2783","130.298715","","","1","","",""
"1032255","","東高木","","33.28245","130.2984","","","1","","",""
"1032256","","寄人","","33.285765","130.297935","","","1","","",""
"1032257","","城北団地","","33.28799","130.29789","","","1","","",""
"1032258","","二俣","","33.29016","130.29794","","","1","","",""
"1032261","","グラスコート佐賀","","33.300145","130.29728","","","1","","",""
"1032262","","千布南","","33.306085","130.29956","","","1","","",""
"1032263","","東千布","","33.307605","130.300705","","","1","","",""
"1032264","","金立公民館前","","33.30748","130.30341","","","1","","",""
"1032259","","金立ケアセンター前","","33.29765","130.297385","","","1","","",""
"1032260","","健康運動センター","","33.29781","130.293355","","","1","","",""
"1011037","","大財町","","33.2579785","130.304659","","","1","","",""
"1011038","","呉服元町","","33.2540805","130.305521","","","1","","",""
"1012057","","佐賀大学東","","33.24162","130.294135","","","1","","",""
"1012058","","なゆたの森病院前","","33.237295","130.29418","","","1","","",""
"1012059","","本庄小学校前","","33.23547","130.293715","","","1","","",""
"1012060","","本庄公民館前","","33.23279","130.2938","","","1","","",""
"1012061","","鹿の子団地","","33.229785","130.293995","","","1","","",""
"1012062","","鹿の子","","33.226235","130.29419","","","1","","",""
"1012063","","鹿の子宮前","","33.22194","130.29453","","","1","","",""
"1012064","","上古賀","","33.21748","130.29293","","","1","","",""
"1012065","","下古賀","","33.21381","130.291495","","","1","","",""
"1012066","","田中","","33.21138","130.288185","","","1","","",""
"1012067","","東与賀支所前","","33.208135","130.287255","","","1","","",""
"1012068","","東与賀郵便局前","","33.204275","130.286175","","","1","","",""
"1012069","","作出","","33.20165","130.285835","","","1","","",""
"1012070","","住吉","","33.20121","130.279535","","","1","","",""
"1012071","","大野東","","33.202315","130.276005","","","1","","",""
"1012072","","大野中","","33.202815","130.273395","","","1","","",""
"1012073","","大野","","33.20308","130.27011","","","1","","",""
"1011044","","ちやの木","","33.24376","130.28415","","","1","","",""
"1011045","","本庄宮前","","33.242135","130.281005","","","1","","",""
"1011046","","平松","","33.238855","130.27877","","","1","","",""
"1011047","","中村","","33.235","130.276265","","","1","","",""
"1011048","","今津上町","","33.231875","130.27387","","","1","","",""
"1011049","","今津下町","","33.23004","130.27239","","","1","","",""
"1011050","","ブルースタジアム前","","33.226885","130.26983","","","1","","",""
"1011051","","高太郎橋","","33.2228","130.26776","","","1","","",""
"1011052","","丸目","","33.2188","130.264505","","","1","","",""
"1011053","","本庄江橋","","33.2194925","130.257525","","","1","","",""
"1011054","","久保田橋","","33.219905","130.24878","","","1","","",""
"1011055","","久富","","33.22007","130.24657","","","1","","",""
"1011056","","くぼた特産物直売所前","","33.219915","130.2439","","","1","","",""
"1028191","","材木橋","","33.251906","130.3092565","","","1","","",""
"1028192","","東佐賀","","33.25191","130.31298","","","1","","",""
"1028193","","東田代","","33.248615","130.31365","","","1","","",""
"1028194","","今宿町","","33.24779","130.315645","","","1","","",""
"1028195","","枝吉","","33.24767","130.31901","","","1","","",""
"1029201","","矢ヶ部医院前","","33.247735","130.32341","","","1","","",""
"1029202","","江上町","","33.247845","130.326645","","","1","","",""
"1029203","","江上町東","","33.24777","130.32986","","","1","","",""
"1029204","","増田口","","33.2471","130.33307","","","1","","",""
"1029205","","犬尾","","33.24683","130.33946","","","1","","",""
"1029206","","東西","","33.248225","130.341775","","","1","","",""
"1029207","","東の巨勢","","33.24758","130.348635","","","1","","",""
"1029208","","蓮池魚町","","33.24645","130.35371","","","1","","",""
"1029209","","蓮池公園前","","33.24646","130.356065","","","1","","",""
"1029210","","蓮池郵便局前","","33.24947","130.35658","","","1","","",""
"1029211","","中地橋","","33.25014","130.36079","","","1","","",""
"1029212","","芙蓉校前","","33.25008","130.36304","","","1","","",""
"1029213","","小松","","33.24865","130.36501","","","1","","",""
"1029214","","堂地","","33.247505","130.36851","","","1","","",""
"1029215","","蒲田津橋","","33.24497","130.36946","","","1","","",""
"1029216","","渡端","","33.241855","130.3695","","","1","","",""
"1029217","","大堂","","33.23857","130.36913","","","1","","",""
"1028189","","副島病院前","","33.256955","130.303905","","","1","","",""
"1028190","","エスプラッツ前","","33.2546538","130.3023883","","","1","","",""
"1028196","","牛島下","","33.249945","130.321955","","","1","","",""
"2015194","","高尾","","33.253245","130.32297","","","1","","",""
"1028198","","老人センター前","","33.25393","130.325545","","","1","","",""
"1028199","","巨勢公民館前","","33.254875","130.3282","","","1","","",""
"1028200","","道崎","","33.25737","130.33556","","","1","","",""
"1050278","","西神野","","33.263735","130.289715","","","1","","",""
"1050279","","昭和橋","","33.26294","130.28426","","","1","","",""
"1050280","","神野公園","","33.264765","130.28199","","","1","","",""
"1050281","","八戸溝郵便局前","","33.264815","130.27806","","","1","","",""
"1050282","","鍋島団地","","33.265945","130.276435","","","1","","",""
"1050283","","鍋島新村","","33.26881","130.27587","","","1","","",""
"1050284","","ＪＡ佐賀市せいぶ支所前","","33.271845","130.27546","","","1","","",""
"1050285","","鍋島小学校前","","33.273525","130.27084","","","1","","",""
"1050286","","鍋島一丁目","","33.27565","130.270625","","","1","","",""
"1050287","","津留","","33.27916","130.26992","","","1","","",""
"1050295","","医学部入口","","33.28226","130.268965","","","1","","",""
"1050296","","佐賀大学病院","","33.2835","130.26709","","","1","","",""
"1050288","","鍋島シェスト前","","33.280095","130.268605","","","1","","",""
"1050289","","鍋島西団地","","33.27985","130.265015","","","1","","",""
"1050290","","医学部西","","33.28316","130.263215","","","1","","",""
"1050291","","鍋島五丁目","","33.286485","130.263145","","","1","","",""
"1050292","","鍋島本村","","33.28825","130.26413","","","1","","",""
"1050293","","鍋島六丁目","","33.288365","130.26587","","","1","","",""
"1050294","","医学部北","","33.28649","130.26832","","","1","","",""
"1051297","","西九大神園南","","33.26952","130.28482","","","1","","",""
"1051298","","常盤団地入口","","33.26895","130.281575","","","1","","",""
"1051299","","鍋島東団地","","33.268725","130.28012","","","1","","",""
"1051300","","開成三丁目","","33.269775","130.27794","","","1","","",""
"1051301","","アルタ東","","33.27164","130.27761","","","1","","",""
"1051302","","卸センター前","","33.272745","130.2774499","","","1","","",""
"1060346","","佐賀中部病院前","","33.26376","130.31912","","","1","","",""
"1060347","","修理田","","33.2635875","130.3230275","","","1","","",""
"1060348","","中牟田","","33.26653","130.327725","","","1","","",""
"1060349","","瓦町南","","33.269525","130.330965","","","1","","",""
"1060350","","瓦町","","33.271915","130.33358","","","1","","",""
"1060351","","堀立","","33.275025","130.33711","","","1","","",""
"1060352","","堀立東","","33.277445","130.338515","","","1","","",""
"1060353","","外野","","33.28102","130.33696","","","1","","",""
"1060354","","伊賀屋橋","","33.28399","130.33578","","","1","","",""
"1060355","","伊賀屋","","33.28807","130.334865","","","1","","",""
"1060356","","中野吉","","33.29118","130.33501","","","1","","",""
"1060357","","和泉野橋","","33.29678","130.33365","","","1","","",""
"1060358","","折地","","33.30185","130.331575","","","1","","",""
"1060359","","下和泉","","33.304315","130.330055","","","1","","",""
"1060360","","上揚","","33.30836","130.32828","","","1","","",""
"1060361","","久保泉工業団地東","","33.310475","130.327255","","","1","","",""
"1060362","","上和泉","","33.316735","130.32641","","","1","","",""
"1060363","","久保泉小学校前","","33.321565","130.326625","","","1","","",""
"1060364","","川久保","","33.32479","130.326925","","","1","","",""
"1060365","","川久保交差点北","","33.32626","130.327085","","","1","","",""
"1060366","","川久保中","","33.32813","130.3273","","","1","","",""
"1060367","","上分公民館前","","33.33195","130.32761","","","1","","",""
"1060368","","勝宿神社","","33.33578","130.32718","","","1","","",""
"1060369","","清友病院前","","33.34","130.32584","","","1","","",""
"1024160","","大井樋","","33.23922","130.29602","","","1","","",""
"1024161","","佐賀大学南","","33.239555","130.291205","","","1","","",""
"1024162","","高伝寺前","","33.23993","130.28464","","","1","","",""
"1024163","","平松交差点東","","33.24005","130.28247","","","1","","",""
"1024164","","平松老人センター前","","33.241605","130.27798","","","1","","",""
"1024165","","平林胃腸科前","","33.24415","130.276565","","","1","","",""
"1018075","","地蔵前","","33.2464695","130.2774205","","","1","","",""
"1018074","","長瀬町","","33.248035","130.2829235","","","1","","",""
"1024166","","護国神社前","","33.253115","130.293495","","","1","","",""
"1024167","","成章中学校西","","33.257185","130.292995","","","1","","",""
"1005024","","夢咲公園","","33.268405","130.30357","","","1","","",""
"1005025","","ほほえみ館前","","33.26878","130.30516","","","1","","",""
"1005026","","アルカディアSAGA前","","33.26925","130.3079","","","1","","",""
"1005027","","夢咲コスモスタウン","","33.27116","130.30861","","","1","","",""
"1005028","","夢咲コスモスタウン北","","33.273375","130.30806","","","1","","",""
"1005031","","ゆめタウン佐賀","","33.27497","130.30783","","","1","","",""
"1005029","","佐賀清和学園前","","33.270465","130.31057","","","1","","",""
"1005030","","ぽかぽか温泉前","","33.2727","130.310715","","","1","","",""
"1064370","","東与賀イオン前","","33.22166","130.3063","","","1","","",""
"1064371","","小々森北","","33.197315","130.303555","","","1","","",""
"1001001","","佐賀空港","","33.153725","130.303285","","","1","","",""
"1018076","","普門寺","","33.2456805","130.273689","","","1","","",""
"1018077","","高橋","","33.2452305","130.2715275","","","1","","",""
"1018078","","扇町東","","33.244497","130.267219","","","1","","",""
"1018079","","扇町","","33.243948","130.263659","","","1","","",""
"1018080","","嘉瀬元町","","33.242904","130.257718","","","1","","",""
"1027184","","十五","","33.23562","130.25787","","","1","","",""
"1027185","","十五南","","33.23017","130.257645","","","1","","",""
"1027186","","嘉瀬新町","","33.225155","130.257505","","","1","","",""
"1027187","","新町中央","","33.222015","130.25747","","","1","","",""
"1018085","","元小路","","33.24179","130.237595","","","1","","",""
"1018086","","中副","","33.23916","130.23797","","","1","","",""
"1018087","","久保田支所前","","33.233765","130.23939","","","1","","",""
"1018088","","横江","","33.22612","130.24089","","","1","","",""
"1018089","","久富西","","33.220365","130.24169","","","1","","",""
"1018081","","森林公園東","","33.242417","130.251808","","","1","","",""
"1018082","","森林公園前","","33.24274","130.249543","","","1","","",""
"1018083","","嘉瀬橋","","33.247437","130.2406275","","","1","","",""
"1018084","","徳万","","33.24787","130.23757","","","1","","",""
"1065372","","諸富ハートフル","","33.22186","130.35483","","","1","","",""
"1065375","","下早","","33.198855","130.33505","","","1","","",""
"1065376","","有明漁協東与賀支所前","","33.199525","130.29286","","","1","","",""
"1065377","","中飯盛","","33.216305","130.283485","","","1","","",""
"4014152","","徳万","","33.2503485","130.2351479","","","1","","",""
"4014153","","久保田宿","","33.2491045","130.2276375","","","1","","",""
"4014154","","せとぐち内科前","","33.248699","130.225456","","","1","","",""
"4014155","","十丁畷手","","33.247319","130.2166695","","","1","","",""
"4014156","","芦刈町分","","33.2471865","130.2116495","","","1","","",""
"4014157","","牛津本町","","33.2479695","130.208567","","","1","","",""
"4014158","","牛津駅前","","33.2495265","130.201123","","","1","","",""
"4014159","","牛津新町","","33.24768","130.195366","","","1","","",""
"4014160","","砥川町","","33.2454045","130.1894815","","","1","","",""
"4014161","","砥川新宿","","33.240943","130.184699","","","1","","",""
"4014162","","砥川小学校前","","33.2326385","130.181078","","","1","","",""
"4014163","","蒲原","","33.22673","130.179081","","","1","","",""
"4014164","","佐留志","","33.22131","130.1706455","","","1","","",""
"4013125","","山口駅前","","33.2196975","130.160731","","","1","","",""
"4013129","","江北役場前","","33.220066","130.1571245","","","1","","",""
"4013134","","経済連センター前","","33.219869","130.1459505","","","1","","",""
"4013135","","杵島商校前","","33.2176383","130.1377977","","","1","","",""
"4028310","","ＪＡさが地区中央支所前","","33.2142245","130.1265905","","","1","","",""
"4028311","","大町学校前","","33.2126825","130.119882","","","1","","",""
"4028312","","大町役場前","","33.2127155","130.1164185","","","1","","",""
"4028313","","大町病院前","","33.212752","130.1129895","","","1","","",""
"4028314","","土場口","","33.2127835","130.110143","","","1","","",""
"4028315","","大町駅前","","33.21281","130.106236","","","1","","",""
"4028316","","大町幹部派出所前","","33.213674","130.099288","","","1","","",""
"4028317","","赤坂","","33.21517","130.0923385","","","1","","",""
"4028318","","焼米橋","","33.2160715","130.0868875","","","1","","",""
"4028319","","北方駅前","","33.216832","130.082963","","","1","","",""
"4028320","","リムス前","","33.2173355","130.078262","","","1","","",""
"4028321","","北方ゴルフ場前","","33.2202295","130.073385","","","1","","",""
"4028322","","北方支所前","","33.220357","130.0681365","","","1","","",""
"4028323","","ホームセンターユートク","","33.220127","130.06235","","","1","","",""
"3117746","","北方大崎","","33.220387","130.0555405","","","1","","",""
"3117745","","武雄北方インター口","","33.2142425","130.04892","","","1","","",""
"3117744","","鳴瀬分道","","33.2101693","130.0453257","","","1","","",""
"3116705","","高橋駅前","","33.208031","130.0414795","","","1","","",""
"3116704","","メリーランド前","","33.205838","130.037865","","","1","","",""
"3116703","","甘久","","33.2038135","130.03458","","","1","","",""
"3116702","","甘久西","","33.2019417","130.0313617","","","1","","",""
"3116701","","武雄中学校前","","33.1996635","130.0278165","","","1","","",""
"3116700","","武雄温泉駅前","","33.19621","130.022189","","","1","","",""
"3116699","","温泉入口","","33.1934625","130.0163865","","","1","","",""
"3116698","","竹下町","","33.19187","130.0129865","","","1","","",""
"4028326","","下西山","","33.1902325","130.0123795","","","1","","",""
"4028327","","下西山車庫","","33.189196","130.01047","","","1","","",""
"4015165","","江北学校入口","","33.214497","130.1547435","","","1","","",""
"4015166","","千反松","","33.207143","130.150432","","","1","","",""
"4015167","","八丁","","33.2009895","130.1463735","","","1","","",""
"4015168","","下小田","","33.198304","130.143583","","","1","","",""
"4015169","","六角橋","","33.1938115","130.140779","","","1","","",""
"4015170","","白石","","33.1871135","130.141063","","","1","","",""
"4015171","","白石中町","","33.1829585","130.140245","","","1","","",""
"4015172","","廿治町","","33.179232","130.139334","","","1","","",""
"4015173","","白石中学校前","","33.1741445","130.137608","","","1","","",""
"4015174","","干拓道","","33.169444","130.135553","","","1","","",""
"4015175","","大井","","33.1670225","130.1344845","","","1","","",""
"4015176","","柳橋","","33.1619265","130.1317465","","","1","","",""
"4015177","","廻里津","","33.1546605","130.1253655","","","1","","",""
"4015178","","廻里江橋","","33.150979","130.123722","","","1","","",""
"4015179","","竜王駅前","","33.146928","130.1221645","","","1","","",""
"4015180","","竜王崎","","33.1367905","130.123026","","","1","","",""
"4015181","","深浦","","33.1337045","130.1127425","","","1","","",""
"4015182","","百貫","","33.1330125","130.1095295","","","1","","",""
"4015183","","井手","","33.1263","130.1027845","","","1","","",""
"4015184","","新篭入口","","33.124204","130.101084","","","1","","",""
"4015185","","乙丸東","","33.119658","130.0984785","","","1","","",""
"4015186","","鹿島本町東","","33.116684","130.0973455","","","1","","",""
"4003001","","鹿島バスセンター","","33.1140786","130.096888","","","1","","",""
"4003002","","中牟田","","33.11057","130.097314","","","1","","",""
"4003003","","中川","","33.1075505","130.097817","","","1","","",""
"4003004","","小舟津","","33.104365","130.101997","","","1","","",""
"4003005","","鹿島農協入口","","33.102546","130.1058365","","","1","","",""
"4003006","","しめご橋","","33.100433","130.1080805","","","1","","",""
"4003007","","石木津","","33.097801","130.1086395","","","1","","",""
"4003008","","浜三ツ角西","","33.095703","130.111741","","","1","","",""
"4003009","","浜三ツ角","","33.0950935","130.1124895","","","1","","",""
"4003010","","工場団地入口","","33.0933195","130.111172","","","1","","",""
"4003011","","大村方","","33.090331","130.1101575","","","1","","",""
"4003012","","古枝小学校前","","33.0824535","130.108789","","","1","","",""
"4003013","","祐徳神社前","","33.078148","130.109037","","","1","","",""
"4009080","","久保山","","33.0886025","130.105534","","","1","","",""
"4009081","","誕生院前","","33.096359","130.1029125","","","1","","",""
"4009082","","執行分","","33.101593","130.1020155","","","1","","",""
"4009083","","泉通り","","33.1044285","130.1009765","","","1","","",""
"4009084","","鹿島本町西","","33.116411","130.095235","","","1","","",""
"4009085","","乙丸西","","33.119632","130.096811","","","1","","",""
"4009086","","貝の橋","","33.122411","130.091575","","","1","","",""
"4009087","","五の宮","","33.1221005","130.0855045","","","1","","",""
"4009088","","大牟田","","33.1233915","130.079248","","","1","","",""
"4009089","","真崎","","33.124393","130.072128","","","1","","",""
"4009090","","五町田","","33.1256795","130.0627875","","","1","","",""
"4009091","","嬉野市役所塩田庁舎前","","33.127742","130.0592013","","","1","","",""
"4009092","","下野辺田","","33.128165","130.0509715","","","1","","",""
"4009093","","塩田小学校前","","33.126396","130.043564","","","1","","",""
"4009094","","宮の元","","33.1268985","130.039884","","","1","","",""
"4009095","","美野入口","","33.1302875","130.0325705","","","1","","",""
"4009096","","塩吹","","33.1325435","130.0306145","","","1","","",""
"4009097","","橋山入口","","33.1364585","130.024631","","","1","","",""
"4009098","","万才","","33.1353925","130.0154625","","","1","","",""
"4009099","","蛍橋","","33.129917","130.006838","","","1","","",""
"4009100","","五代","","33.128153","130.004701","","","1","","",""
"4009101","","式浪入口","","33.1247035","130.002917","","","1","","",""
"4007053","","一位原","","33.117886","130.001474","","","1","","",""
"4005042","","今寺","","33.109634","129.9997935","","","1","","",""
"4005041","","嬉野高校前","","33.107581","129.997643","","","1","","",""
"4005040","","築城","","33.1044017","129.9946007","","","1","","",""
"4005039","","温泉四区","","33.102277","129.992193","","","1","","",""
"4006052","","昭和通り","","33.100807","129.989842","","","1","","",""
"4005038","","公会堂前","","33.100132","129.988177","","","1","","",""
"4005035","","体育館前","","33.098692","129.9849295","","","1","","",""
"4005034","","嬉野医療センター前","","33.0982925","129.980257","","","1","","",""
"4005033","","嬉野温泉バスセンター","","33.096185","129.98176","","","1","","",""
"4005032","","湯の田","","33.095585","129.97879","","","1","","",""
"4011102","","鹿島新町","","33.111499","130.095208","","","1","","",""
"4011103","","公園入口","","33.1096257","130.0948653","","","1","","",""
"4011104","","西牟田","","33.11009","130.0885465","","","1","","",""
"4011105","","鹿島総合庁舎前","","33.10998","130.087047","","","1","","",""
"4011106","","黒川","","33.105579","130.0842315","","","1","","",""
"4011107","","伏原入口","","33.100438","130.080189","","","1","","",""
"4011108","","浅浦入口","","33.0977215","130.0765375","","","1","","",""
"4011110","","平山","","33.0994425","130.069891","","","1","","",""
"4011111","","塩田分岐","","33.1002905","130.0649905","","","1","","",""
"4011112","","八天社前","","33.09959","130.057314","","","1","","",""
"4011113","","北山","","33.0986825","130.0521765","","","1","","",""
"4011114","","鳥越","","33.099861","130.043444","","","1","","",""
"4011115","","東吉田下","","33.09224","130.0275345","","","1","","",""
"4011116","","東吉田","","33.089314","130.026054","","","1","","",""
"4011117","","納戸料","","33.087106","130.020418","","","1","","",""
"4011118","","羽口坂","","33.082113","130.0191665","","","1","","",""
"4011119","","上皿屋","","33.083039","130.016138","","","1","","",""
"4011120","","下皿屋","","33.084872","130.015828","","","1","","",""
"4011121","","西吉田入口","","33.0873215","130.014458","","","1","","",""
"4011122","","西吉田下山","","33.089511","130.009369","","","1","","",""
"4011123","","兎鹿野入口","","33.095578","130.003126","","","1","","",""
"4011124","","中山","","33.098143","130.001567","","","1","","",""
"4006051","","井手川内","","33.101419","129.9990965","","","1","","",""
"4011109","","浅浦","","33.093109","130.069421","","","1","","",""
"4030328","","塩田下町","","33.13202","130.061379","","","1","","",""
"4030329","","牛間田新道","","33.136566","130.0633795","","","1","","",""
"4030330","","下久間","","33.140199","130.0636825","","","1","","",""
"4030331","","志田原","","33.1477805","130.063048","","","1","","",""
"4030332","","冬野入口","","33.150777","130.0642515","","","1","","",""
"4030333","","西山","","33.157038","130.062939","","","1","","",""
"4030334","","北志田","","33.161864","130.061169","","","1","","",""
"4030335","","楢崎","","33.1662815","130.057737","","","1","","",""
"4030336","","上野","","33.1688595","130.050789","","","1","","",""
"4030337","","郷の木","","33.174386","130.0483505","","","1","","",""
"4030338","","潮見","","33.1777195","130.0459185","","","1","","",""
"4030339","","大谷","","33.18174","130.042173","","","1","","",""
"4030340","","永島","","33.1848535","130.038389","","","1","","",""
"4030341","","和田団地","","33.1889395","130.036279","","","1","","",""
"4030342","","花島","","33.1907845","130.035289","","","1","","",""
"4030343","","青陵中学校前","","33.1926807","130.0307373","","","1","","",""
"4031346","","武雄総合庁舎前","","33.195468","130.0287875","","","1","","",""
"4032367","","武雄市役所前","","33.1944145","130.021207","","","1","","",""
"4032366","","マルキョウ前","","33.1929109","130.0231907","","","1","","",""
"4026299","","図書館前","","33.189512","130.024166","","","1","","",""
"4032365","","武雄高校前","","33.1894465","130.02084","","","1","","",""
"4026300","","武雄中央公園前","","33.1931105","130.0181385","","","1","","",""
"0000001","","宇宙科学館","","33.177826","130.035676","","","1","","",""
"4020191","","浜駅前","","33.094164","130.115658","","","1","","",""
"4020192","","浜大橋","","33.092097","130.118586","","","1","","",""
"4020193","","浜崎","","33.089754","130.1217405","","","1","","",""
"4020194","","新方","","33.0881105","130.1281145","","","1","","",""
"4020195","","西葉","","33.08747","130.1329545","","","1","","",""
"4020196","","琵琶岬橋","","33.0843435","130.136116","","","1","","",""
"4020197","","塩屋橋","","33.0801835","130.13918","","","1","","",""
"4020198","","宮道","","33.078441","130.142861","","","1","","",""
"4020199","","海洋センター前","","33.0758855","130.1450685","","","1","","",""
"4020200","","音成","","33.072071","130.1460865","","","1","","",""
"4020201","","七浦郵便局前","","33.069523","130.1490395","","","1","","",""
"4020202","","七浦小学校入口","","33.067151","130.150278","","","1","","",""
"4020203","","矢の浦","","33.063543","130.154478","","","1","","",""
"4020204","","飯田","","33.0557475","130.1603195","","","1","","",""
"4020205","","江福","","33.052672","130.16573","","","1","","",""
"4020206","","道の駅太良前","","33.0475145","130.168719","","","1","","",""
"4020207","","伊福","","33.0431065","130.169851","","","1","","",""
"4020208","","江岡","","33.0384215","130.1712385","","","1","","",""
"4020209","","太良高校正門前","","33.034696","130.170138","","","1","","",""
"4020210","","多良栄町","","33.031823","130.1753125","","","1","","",""
"4020211","","球場前","","33.0283865","130.1774525","","","1","","",""
"4020212","","太良病院前","","33.0260025","130.178258","","","1","","",""
"4020213","","太良老人センター","","33.0242565","130.1786665","","","1","","",""
"4020214","","太良役場前","","33.019247","130.1786015","","","1","","",""
"4020215","","糸岐本町","","33.0156325","130.180726","","","1","","",""
"4020216","","陣内","","33.01371","130.182151","","","1","","",""
"4020217","","亀崎","","33.011256","130.185991","","","1","","",""
"4020218","","破瀬の浦","","32.999428","130.187235","","","1","","",""
"4020219","","休石","","32.991226","130.190968","","","1","","",""
"4020220","","里","","32.988876","130.193355","","","1","","",""
"4020221","","野上","","32.988902","130.204326","","","1","","",""
"4020222","","広江","","32.9812295","130.2073795","","","1","","",""
"4020223","","亀の浦入口","","32.97895","130.2086165","","","1","","",""
"4020224","","大浦駅前","","32.975284","130.2068545","","","1","","",""
"4020225","","風配登山口","","32.9726023","130.2050233","","","1","","",""
"4020226","","竹崎入口","","32.9689007","130.203851","","","1","","",""
"4020227","","津の浦","","32.9662735","130.201738","","","1","","",""
"4020228","","牟田","","32.960025","130.206003","","","1","","",""
"4020229","","県界","","32.958972","130.202581","","","1","","",""
"4022256","","鹿島市役所・エイブル前","","33.1043785","130.0991035","","","1","","",""
"4022257","","末光","","33.0988265","130.100978","","","1","","",""
"4020399","","ララベル前","","33.0982595","130.1017515","","","1","","",""
"4033398","","ドラモリ・コメリ前","","33.0991145","130.105674","","","1","","",""
"3094619","","東佐賀","","33.2535935","130.3135135","","","1","","",""
"4050800","","モラージュ佐賀","","33.252264","130.319743","","","1","","",""
"4026298","","御船ヶ丘小学校前","","33.187339","130.0267675","","","1","","",""
"4026301","","武雄警察署前","","33.1899145","130.009774","","","1","","",""
"4026302","","若葉台入口","","33.1882725","130.0047515","","","1","","",""
"4026303","","上西山","","33.1867295","130.0011015","","","1","","",""
"4026304","","下山入口","","33.1840725","129.9945835","","","1","","",""
"4026305","","踊瀬","","33.190837","129.983246","","","1","","",""
"4026306","","永尾駅前","","33.1935035","129.9806285","","","1","","",""
"4026307","","小六川","","33.196892","129.968907","","","1","","",""
"4007075","","岩井手","","33.1961033","129.962736","","","1","","",""
"4007076","","茅場","","33.195998","129.9605515","","","1","","",""
"4007077","","草場前","","33.195304","129.954615","","","1","","",""
"4007078","","三間坂","","33.194918","129.951232","","","1","","",""
"4007079","","三間坂駅前","","33.194944","129.948124","","","1","","",""
"4027308","","踊瀬ダム前","","33.185802","129.988034","","","1","","",""
"4027309","","谷口眼科前","","33.185401","129.997831","","","1","","",""
"4007054","","三坂","","33.1224445","129.9987085","","","1","","",""
"4007055","","長谷","","33.12829","129.9946595","","","1","","",""
"4007056","","小田志口","","33.1298685","129.992274","","","1","","",""
"4007057","","日出城","","33.1358625","129.987937","","","1","","",""
"4007059","","弓野","","33.137309","129.982034","","","1","","",""
"4007060","","弓野橋","","33.138355","129.9786735","","","1","","",""
"4007067","","宮の前","","33.147246","129.975869","","","1","","",""
"4007068","","上高瀬","","33.151638","129.973977","","","1","","",""
"4007069","","犬走峠","","33.16488","129.9678715","","","1","","",""
"4007070","","犬走公民館前","","33.171086","129.969297","","","1","","",""
"4007071","","中郷","","33.174373","129.970157","","","1","","",""
"4007072","","寺の前","","33.17744","129.97156","","","1","","",""
"4007073","","踊瀬入口","","33.180287","129.973775","","","1","","",""
"4007074","","山内東小学校前","","33.1931305","129.9640435","","","1","","",""
"4007058","","日出城西","","33.136877","129.987112","","","1","","",""
"4007061","","西川登小学校前","","33.138078","129.971937","","","1","","",""
"4007062","","庭木","","33.137951","129.966929","","","1","","",""
"4007063","","神六","","33.14155","129.958311","","","1","","",""
"4007064","","上神六","","33.1418855","129.954262","","","1","","",""
"4007065","","矢筈入口","","33.141351","129.948997","","","1","","",""
"4007066","","矢筈","","33.154726","129.944592","","","1","","",""
"4005050","","七ツ川内","","33.101735","130.023492","","","1","","",""
"4005049","","下吉田","","33.101879","130.019209","","","1","","",""
"4005048","","下永尾","","33.105829","130.017292","","","1","","",""
"4005047","","広瀬橋","","33.109331","130.015585","","","1","","",""
"4005046","","飯盛","","33.110994","130.010748","","","1","","",""
"4005045","","下野","","33.109592","130.009122","","","1","","",""
"4005044","","下野公民館前","","33.1069783","130.005417","","","1","","",""
"4005043","","羽白越","","33.105034","130.003942","","","1","","",""
"4005037","","嬉野小学校入口","","33.1026775","129.9860795","","","1","","",""
"4005036","","嬉野中学校前","","33.108633","129.98664","","","1","","",""
"4013130","","朝鍋宿","","33.221081","130.152528","","","1","","",""
"4013131","","土元","","33.226396","130.154426","","","1","","",""
"4013132","","門前","","33.232892","130.150677","","","1","","",""
"4013133","","花祭","","33.243972","130.152248","","","1","","",""
"4013148","","白木パノラマ孔園前","","33.2411","130.135468","","","1","","",""
"4013147","","平山","","33.236984","130.135435","","","1","","",""
"4013146","","岳","","33.232668","130.136133","","","1","","",""
"4013145","","仲町","","33.231629","130.139148","","","1","","",""
"4013144","","上小田集会所前","","33.229676","130.141436","","","1","","",""
"4013143","","上小田浄水場","","33.230222","130.143797","","","1","","",""
"4013142","","永林寺保育園前","","33.228649","130.144219","","","1","","",""
"4013141","","小田商店街入口","","33.226837","130.142734","","","1","","",""
"4013140","","古賀小児科前","","33.225606","130.14489","","","1","","",""
"4013126","","江北小学校前","","33.214367","130.158569","","","1","","",""
"4013127","","幼児教育センター","","33.216325","130.16057","","","1","","",""
"4013151","","山口駅前(南口)","","33.218605","130.160693","","","1","","",""
"4013136","","観音下","","33.218782","130.136487","","","1","","",""
"4013137","","天子社","","33.223467","130.135346","","","1","","",""
"4013138","","上区","","33.226365","130.136076","","","1","","",""
"4013139","","岩屋団地","","33.230487","130.137805","","","1","","",""
"4013149","","ＳＵＭＣＯ前","","33.232028","130.140977","","","1","","",""
"4013150","","日の出町","","33.231216","130.144382","","","1","","",""
"4013128","","イオン江北店","","33.216854","130.162279","","","1","","",""
"4020240","","コロニー入口","","32.96602","130.205343","","","1","","",""
"4020241","","道越","","32.961151","130.216841","","","1","","",""
"4020242","","観世音横","","32.956982","130.221008","","","1","","",""
"4020243","","竹崎本泊","","32.955407","130.220234","","","1","","",""
"4020244","","竹崎港","","32.954426","130.218366","","","1","","",""
"4020245","","平野","","32.974665","130.191953","","","1","","",""
"4020246","","上平野","","32.97505","130.189128","","","1","","",""
"4020247","","長川原","","32.977397","130.179616","","","1","","",""
"4020248","","黒金入口","","32.975651","130.176371","","","1","","",""
"4020249","","大町入口","","32.97396","130.173947","","","1","","",""
"4020250","","広谷入口","","32.974797","130.1716","","","1","","",""
"4020230","","多良駅前","","33.0254945","130.1775475","","","1","","",""
"4020231","","畑田","","33.023897","130.174886","","","1","","",""
"4020232","","上畑田","","33.02386","130.171421","","","1","","",""
"4020233","","瀬戸","","33.023534","130.165861","","","1","","",""
"4020234","","上川原","","33.022755","130.156177","","","1","","",""
"4020235","","郷式","","33.020549","130.14617","","","1","","",""
"4020236","","大川内","","33.010197","130.131778","","","1","","",""
"4020237","","下中山","","33.001612","130.114318","","","1","","",""
"4020238","","音谷","","32.998836","130.111092","","","1","","",""
"4020239","","中山","","32.995287","130.108315","","","1","","",""
"4022251","","幸通り","","33.108855","130.096163","","","1","","",""
"4022252","","道場前","","33.107052","130.095486","","","1","","",""
"4022253","","鹿島小学校前","","33.103838","130.09493","","","1","","",""
"4022254","","体育館前","","33.10184","130.093646","","","1","","",""
"4022255","","西部中学校前","","33.0985325","130.093273","","","1","","",""
"4022259","","辻宿","","33.094189","130.093062","","","1","","",""
"4022260","","農協前","","33.093258","130.091428","","","1","","",""
"4022261","","川原入口","","33.091764","130.0884235","","","1","","",""
"4022262","","大井手","","33.0887265","130.083052","","","1","","",""
"4022263","","大木庭入口","","33.086041","130.077976","","","1","","",""
"4022264","","大木庭","","33.084556","130.074646","","","1","","",""
"4022265","","高仙寺","","33.083466","130.071802","","","1","","",""
"4022266","","三河内","","33.0780895","130.0673465","","","1","","",""
"4022267","","三獄神社前","","33.076861","130.066741","","","1","","",""
"4022268","","東木庭","","33.074414","130.065626","","","1","","",""
"4022269","","山下入口","","33.069714","130.063146","","","1","","",""
"4022270","","山下","","33.066078","130.060924","","","1","","",""
"4022271","","平原","","33.061766","130.057833","","","1","","",""
"4022272","","掛橋入口","","33.060956","130.057179","","","1","","",""
"4022273","","早の瀬","","33.054891","130.051646","","","1","","",""
"4022274","","大野","","33.041737","130.044807","","","1","","",""
"4022258","","行成","","33.097343","130.098578","","","1","","",""
"4022288","","筒口","","33.0891415","130.093327","","","1","","",""
"4022289","","構江","","33.087074","130.094969","","","1","","",""
"4022290","","権現橋","","33.081166","130.095858","","","1","","",""
"4022291","","川内","","33.075362","130.095199","","","1","","",""
"4022292","","野口","","33.068577","130.092887","","","1","","",""
"4022293","","山方","","33.060666","130.095777","","","1","","",""
"4022294","","山浦","","33.056661","130.094172","","","1","","",""
"4022295","","長野","","33.052261","130.090651","","","1","","",""
"4022281","","貝瀬","","33.07272","130.068384","","","1","","",""
"4022282","","土穴","","33.064828","130.070434","","","1","","",""
"4022283","","本城入口","","33.058138","130.0704","","","1","","",""
"4022284","","本城","","33.052594","130.071266","","","1","","",""
"4022285","","尾崎","","33.048567","130.069289","","","1","","",""
"4003014","","東山公園入口","","33.074433","130.10938","","","1","","",""
"4003015","","鮒越入口","","33.072628","130.109077","","","1","","",""
"4003016","","公民分館前","","33.068802","130.108959","","","1","","",""
"4003017","","上古枝","","33.064977","130.108088","","","1","","",""
"4003018","","中尾","","33.05728","130.108483","","","1","","",""
"4003019","","永田","","33.054215","130.109569","","","1","","",""
"4003020","","上中尾","","33.050154","130.110928","","","1","","",""
"4003021","","藤の瀬","","33.040158","130.112786","","","1","","",""
"4003022","","日当山","","33.0361","130.110007","","","1","","",""
"4003023","","小畑","","33.033602","130.108907","","","1","","",""
"4003024","","赤岩","","33.029669","130.104349","","","1","","",""
"4003025","","奥山","","33.024555","130.098663","","","1","","",""
"4003026","","好日の園","","33.072862","130.112488","","","1","","",""
"4003027","","鮒越","","33.070172","130.113482","","","1","","",""
"4003028","","田代","","33.062511","130.113355","","","1","","",""
"4003029","","花取","","33.055477","130.116577","","","1","","",""
"4003030","","婦人ホーム前","","33.039394","130.117514","","","1","","",""
"4003031","","矢答","","33.027432","130.114328","","","1","","",""
"4031357","","二俣","","33.204683","130.049389","","","1","","",""
"4031358","","鳴瀬","","33.201725","130.054292","","","1","","",""
"4050809","","西医王寺","","33.206652","130.057854","","","1","","",""
"4050807","","医王寺","","33.208114","130.06575","","","1","","",""
"4050812","","折尾","","33.208849","130.070877","","","1","","",""
"4050811","","芦原","","33.208389","130.075779","","","1","","",""
"4050801","","椛島","","33.207094","130.082838","","","1","","",""
"4050810","","蔵堂","","33.205688","130.088461","","","1","","",""
"4050808","","大渡","","33.208681","130.092329","","","1","","",""
"4050802","","富吉神社前","","33.203637","130.093654","","","1","","",""
"4050803","","永谷団地","","33.223262","130.084973","","","1","","",""
"4050804","","大峠入口","","33.225122","130.086768","","","1","","",""
"4050805","","長寿園口","","33.219821","130.090296","","","1","","",""
"4050806","","北方幼稚園前","","33.218734","130.06836","","","1","","",""
"4031345","","温泉楼門","","33.196553","130.014858","","","1","","",""
"4031347","","新武雄病院前","","33.197756","130.034369","","","1","","",""
"4031348","","アクロスプラザ","","33.198338","130.033252","","","1","","",""
"4031349","","武雄中学校裏","","33.201833","130.026388","","","1","","",""
"4031350","","Ａコープ川良前","","33.202539","130.024437","","","1","","",""
"4031351","","鳥居前","","33.205951","130.025143","","","1","","",""
"4031352","","中野住宅入口","","33.208821","130.028064","","","1","","",""
"4031353","","八幡神社前","","33.2117","130.028994","","","1","","",""
"4031354","","中野","","33.215735","130.028694","","","1","","",""
"4031355","","黒尾","","33.2189","130.027981","","","1","","",""
"4031356","","中野入口","","33.2211185","130.0279015","","","1","","",""
"3116709","","善福寺入口","","33.221378","130.028606","","","1","","",""
"3116708","","小原","","33.21715","130.035452","","","1","","",""
"3116707","","朝日小学校前","","33.213941","130.039783","","","1","","",""
"3116706","","高橋宿","","33.211689","130.042088","","","1","","",""
"4031359","","釈迦寺","","33.196111","130.056282","","","1","","",""
"4031360","","片白","","33.191733","130.056611","","","1","","",""
"4031361","","南片白","","33.188223","130.056358","","","1","","",""
"4031362","","橘農協前","","33.184633","130.055351","","","1","","",""
"4031363","","納手","","33.185168","130.046652","","","1","","",""
"4031364","","野間峠","","33.187144","130.029796","","","1","","",""
"4030344","","文化会館前","","33.192267","130.024768","","","1","","",""
"4032369","","小楠","","33.199187","130.025266","","","1","","",""
"4032370","","川良東","","33.203644","130.021606","","","1","","",""
"4032371","","円応寺馬場","","33.204764","130.0183795","","","1","","",""
"4032372","","赤穂山","","33.216092","130.001025","","","1","","",""
"4032373","","本谷入口","","33.215237","129.99454","","","1","","",""
"4032374","","一軒茶屋","","33.214687","129.98318","","","1","","",""
"4032375","","長谷入口","","33.215406","129.980131","","","1","","",""
"4032376","","宇土谷","","33.218189","129.977747","","","1","","",""
"4032377","","上古賀","","33.220914","129.976281","","","1","","",""
"4032378","","馬場","","33.227013","129.972295","","","1","","",""
"4032379","","黒牟田入口","","33.231385","129.969819","","","1","","",""
"4032380","","松尾","","33.235336","129.968643","","","1","","",""
"4032381","","馬渡公民館前","","33.241006","129.971414","","","1","","",""
"4032382","","武雄北中学校前","","33.242013","129.975587","","","1","","",""
"4032383","","山中公民館前","","33.244514","129.978652","","","1","","",""
"3116722","","若木公民館前","","33.254237","129.9911775","","","1","","",""
"4032384","","柿田代公民館前","","33.2409","129.967549","","","1","","",""
"4032385","","多々良入口","","33.236815","129.966957","","","1","","",""
"4032386","","亀の甲","","33.232016","129.966467","","","1","","",""
"4032387","","病院前","","33.229891","129.964346","","","1","","",""
"4032388","","梅の原","","33.226338","129.963966","","","1","","",""
"4032389","","海正原","","33.217672","129.962867","","","1","","",""
"4032390","","鯰渕","","33.212922","129.964934","","","1","","",""
"4032391","","森の木公民館前","","33.212187","129.973005","","","1","","",""
"4032368","","水道公園前","","33.201054","130.024411","","","1","","",""
"4033392","","高木眼科前","","33.1114845","130.0918625","","","1","","",""
"4033393","","御神松","","33.1119615","130.0886875","","","1","","",""
"4033397","","ララベル","","33.097637","130.101816","","","1","","",""
"4033396","","どんとこい前","","33.0969625","130.093961","","","1","","",""
